"HALTESTELLEN_ID";"TYP";"DIVA";"NAME";"GEMEINDE";"GEMEINDE_ID";"WGS84_LAT";"WGS84_LON";"STAND"
214460106;"stop";60200001;"Absberggasse";"Wien";90001;48.1738010728644;16.3898072745249;""
214460107;"stop";60200002;"Achengasse";"Wien";90001;48.2845258075837;16.4488984539143;""
214460108;"stop";60200003;"Ada-Christen-Gasse";"Wien";90001;48.1528655583657;16.385953501956;""
214460109;"stop";60200004;"Adam-Betz-Gasse";"Wien";90001;48.21561055503;16.5351906201068;""
214460110;"stop";60200005;"Adamovichgasse";"Wien";90001;48.1421668131238;16.3378397353386;""
214460111;"stop";60200006;"Adolf-Loos-Gasse";"Wien";90001;48.2775553604276;16.4542254635491;""
214460112;"stop";60200007;"Adolf-Unger-Gasse";"Wien";90001;48.1486762313686;16.3858816367333;""
214460113;"stop";60200008;"Afritschgasse";"Wien";90001;48.246960234718;16.4517371302121;""
214460114;"stop";60200009;"Agavenweg";"Wien";90001;48.2510697532962;16.5071991158536;""
214460115;"stop";60200010;"Neustift, Agnesgasse";"Wien";90001;48.2504297189845;16.3075934597223;""
214460116;"stop";60200011;"Aignerstraße";"Wien";90001;48.246110773392;16.3749760891841;""
214460117;"stop";60200012;"Auf der Schmelz";"Wien";90001;48.2035239231532;16.3166484777862;""
214460118;"stop";60200013;"Morzinplatz";"Wien";90001;48.2131144413282;16.3744909989306;""
214460119;"stop";60200014;"Alaudagasse";"Wien";90001;48.1538903631184;16.3823243082082;""
214460120;"stop";60200015;"Albern";"Wien";90001;48.1600507462881;16.4849298799603;""
214460121;"stop";60200016;"Alberner Hafen";"Wien";90001;48.1584927426059;16.4946316850288;""
214460122;"stop";60200017;"Alberner Hafenzufahrtsstr.";"Wien";90001;48.1720937164414;16.4724792301224;""
214460123;"stop";60200018;"Alberner Straße";"Wien";90001;48.1561796191031;16.4845615706938;""
214460124;"stop";60200019;"Albertgasse";"Wien";90001;48.2106062332956;16.344038110799;""
214460125;"stop";60200020;"Albertinaplatz";"Wien";90001;48.2049608192786;16.3685351685969;""
214460126;"stop";60200021;"Carminweg";"Wien";90001;48.2531812115548;16.4210596632594;""
214460127;"stop";60200022;"Algenweg";"Wien";90001;48.2487966979524;16.5314805779834;""
214460128;"stop";60200023;"Allerheiligengasse";"Wien";90001;48.2380820689074;16.3871662275896;""
214460129;"stop";60200024;"Allissen";"Wien";90001;48.2863489665822;16.4301685802404;""
214460130;"stop";60200025;"Alois-Behr-Straße";"Wien";90001;48.2056074093841;16.2410552466275;""
214460131;"stop";60200026;"Alsegger Straße";"Wien";90001;48.2316857237553;16.3243650060768;""
214460132;"stop";60200027;"Alser Straße";"Wien";90001;48.217142881097;16.341998935104;""
214460133;"stop";60200028;"Aichholzgasse";"Wien";90001;48.1803244479977;16.3243470397711;""
214460134;"stop";60200029;"Nußdorfer Str./Alserbachstr.";"Wien";90001;48.224648222042;16.3543148376493;""
214460135;"stop";60200030;"Triester Str./Altdorferstraße";"Wien";90001;48.1686968067122;16.3493741035867;""
214460136;"stop";60200031;"Alte Donau";"Wien";90001;48.2379564234283;16.4242307162123;""
214460137;"stop";60200032;"Aichholzgasse/Ratschkygasse";"Wien";90001;48.1775989881695;16.3236104212381;""
214460138;"stop";60200033;"Altes Landgut";"Wien";90001;48.1621060403008;16.3833843202434;""
214460139;"stop";60200034;"Althanstraße";"Wien";90001;48.2288373277351;16.3595520157557;""
214460140;"stop";60200035;"Breitenfurter St/Altmannsd Str";"Wien";90001;48.1655992519806;16.3166125451748;""
214460141;"stop";60200036;"Pfeiffenbergergasse";"Wien";90001;48.1946621729789;16.2610068290878;""
214460142;"stop";60200037;"Am Fasangarten";"Wien";90001;48.1712549942186;16.3045930866733;""
214460143;"stop";60200038;"Zanggasse";"Wien";90001;48.2388000371538;16.4844447897069;""
214460144;"stop";60200039;"Am Heidjöchl";"Wien";90001;48.2368076504547;16.4887207704593;""
214460145;"stop";60200040;"Am Himmelreich";"Wien";90001;48.1639095978204;16.4381725694219;""
214460146;"stop";60200041;"Am Hundsturm";"Wien";90001;48.1867451783243;16.347316961586;""
214460147;"stop";60200042;"Am Kanal";"Wien";90001;48.1700208494332;16.4101002167931;""
214460148;"stop";60200043;"Am Kanal/Hasenleitengasse";"Wien";90001;48.1636759178639;16.4184275994769;""
214460149;"stop";60200044;"Am Modenapark";"Wien";90001;48.1990992273478;16.3826207522519;""
214460150;"stop";60200045;"Am Platz";"Wien";90001;48.1860564258032;16.3014849157902;""
214460151;"stop";60200046;"Am Rosenhügel";"Wien";90001;48.1618783441456;16.2908937785905;""
214460152;"stop";60200047;"Reichsbrücke";"Wien";90001;48.2283346531558;16.4097408906795;""
214460153;"stop";60200048;"Am Schöpfwerk";"Wien";90001;48.1612312021862;16.3246075512035;""
214460154;"stop";60200049;"Am Spiegeln";"Wien";90001;48.1522782341351;16.2821980866402;""
214460155;"stop";60200050;"Am Spitz";"Wien";90001;48.258205294225;16.39738007237;""
214460156;"stop";60200051;"Am Tabor";"Wien";90001;48.2251030558241;16.3834741517718;""
214460157;"stop";60200052;"Fünfhausgasse";"Wien";90001;48.189086867664;16.33544123353;""
214460158;"stop";60200053;"Gesundheitszentrum Süd";"Wien";90001;48.1699070190491;16.3451340554456;""
214460159;"stop";60200054;"Ameisbachzeile";"Wien";90001;48.2011349941318;16.2922592178223;""
214460160;"stop";60200055;"Ameisgasse";"Wien";90001;48.1938537613685;16.299517605318;""
214460161;"stop";60200056;"Neubaugasse";"Wien";90001;48.1982908857453;16.350200553648;""
214460162;"stop";60200057;"Ammerweg";"Wien";90001;48.2185135557888;16.260431907306;""
214460163;"stop";60200058;"Amongasse";"Wien";90001;48.2301837531759;16.4694519076149;""
214460164;"stop";60200059;"An den Steinfeldern";"Wien";90001;48.137311184666;16.2981162334748;""
214460165;"stop";60200060;"An den alten Schanzen";"Wien";90001;48.2263837502866;16.4898436645644;""
214460166;"stop";60200061;"An den langen Lüssen";"Wien";90001;48.2526548505155;16.3419091035756;""
214460167;"stop";60200062;"An der Bien";"Wien";90001;48.2071340480777;16.4794950724914;""
214460168;"stop";60200063;"An der Niederhaid";"Wien";90001;48.2041346089318;16.2697384536495;""
214460169;"stop";60200064;"Upsalagasse";"Wien";90001;48.1500966852806;16.3800515705393;""
214460170;"stop";60200065;"Liebhartstal";"Wien";90001;48.2157482268251;16.2919088748615;""
214460171;"stop";60200066;"Angermayergasse";"Wien";90001;48.1843914032162;16.2649234837266;""
214460172;"stop";60200067;"Anschützgasse";"Wien";90001;48.1903744517599;16.323053465762;""
214460173;"stop";60200068;"Anton-Bosch-Gasse";"Wien";90001;48.2694419013947;16.3875165705504;""
214460174;"stop";60200069;"Anton-Böck-Gasse";"Wien";90001;48.2964020710988;16.3897803250664;""
214460175;"stop";60200070;"Anton-Krieger-Gasse";"Wien";90001;48.1428201897953;16.270385240654;""
214460176;"stop";60200071;"Doningasse";"Wien";90001;48.2516200567669;16.4410561614839;""
214460177;"stop";60200072;"Anton-Störck-Gasse";"Wien";90001;48.2648674233156;16.3860882492486;""
214460178;"stop";60200073;"Antonigasse";"Wien";90001;48.2259528660072;16.32978184724;""
214460179;"stop";60200074;"Anzengruberstraße";"Wien";90001;48.2139584646136;16.2239513236179;""
214460180;"stop";60200075;"Apostelgasse";"Wien";90001;48.2004883475678;16.3981346572087;""
214460181;"stop";60200076;"Liesing Aquädukt";"Wien";90001;48.1337201220539;16.2720201744711;""
214460182;"stop";60200077;"Arbeitergasse/Gürtel";"Wien";90001;48.1840559964376;16.345960505507;""
214460183;"stop";60200078;"Arbeiterinnenstrandbad";"Wien";90001;48.2432571978933;16.4140168714319;""
214460184;"stop";60200079;"Argentinierstraße";"Wien";90001;48.1885478693672;16.3767367871409;""
214460185;"stop";60200080;"Armbrustergasse";"Wien";90001;48.2538570990344;16.3548897594311;""
214460186;"stop";60200081;"Arminenstraße";"Wien";90001;48.2362811208879;16.4375886644872;""
214460187;"stop";60200082;"Arndtstraße";"Wien";90001;48.1836487138274;16.3369504032073;""
214460188;"stop";60200083;"Breitenleer Str./Arnikaweg";"Wien";90001;48.2514764999107;16.4801059268846;""
214460189;"stop";60200084;"Arsenal";"Wien";90001;48.1838044399134;16.3846239953355;""
214460190;"stop";60200085;"Artariastraße";"Wien";90001;48.242443570681;16.2813446871203;""
214460191;"stop";60200086;"Arthaberplatz";"Wien";90001;48.1724951000803;16.3721643623448;""
214460192;"stop";60200087;"Artillerieplatz";"Wien";90001;48.1639455484884;16.4727217752491;""
214460193;"stop";60200088;"Aspernallee";"Wien";90001;48.1970454159416;16.4451434960266;""
214460194;"stop";60200089;"Asperner Heldenplatz";"Wien";90001;48.2170830254708;16.4832769798375;""
214460195;"stop";60200090;"Frederick-Loewe-Weg";"Wien";90001;48.2380461702306;16.4816330628676;""
214460196;"stop";60200091;"Matzleinsdf.Platz Autoreisezug";"Wien";90001;"";"";""
214460197;"stop";60200092;"Atzgersdorf Friedhof";"Wien";90001;48.14302998788;16.2979455535708;""
214460198;"stop";60200093;"Atzgersdorf Kirchenplatz";"Wien";90001;48.1476153603959;16.2942714440588;""
214460199;"stop";60200094;"Atzgersdorf";"Wien";90001;48.1472617318652;16.2887468050614;""
214460200;"stop";60200095;"An der Liesing";"Wien";90001;48.138947762604;16.2640970336652;""
214460201;"stop";60200096;"Atzgersdorfer Straße";"Wien";90001;48.170512114508;16.2963645186708;""
214460203;"stop";60200098;"Auernheimergasse";"Wien";90001;48.2031467312409;16.5181136465557;""
214460204;"stop";60200099;"Augasse";"Wien";90001;48.2297110122788;16.357440974838;""
214460205;"stop";60200100;"Broßmannplatz";"Wien";90001;48.2518473542982;16.3986107643092;""
214460206;"stop";60200101;"Aumannplatz";"Wien";90001;48.228161109595;16.3365641276351;""
214460207;"stop";60200102;"Autokaderstraße";"Wien";90001;48.2774477474419;16.3880106439566;""
214460208;"stop";60200103;"Aßmayergasse";"Wien";90001;48.178725129796;16.3377139711988;""
214460209;"stop";60200104;"Bacherplatz";"Wien";90001;48.1882424344826;16.3568570699034;""
214460210;"stop";60200105;"Badeteich Süßenbrunn";"Wien";90001;48.2773341557111;16.4864480327905;""
214460211;"stop";60200106;"Badgasse";"Wien";90001;48.2090138465414;16.2239962393821;""
214460212;"stop";60200107;"Rettichgasse";"Wien";90001;48.2015481251631;16.2623812514725;""
214460213;"stop";60200108;"Duchekgasse";"Wien";90001;48.2085528832398;16.5174578763983;""
214460214;"stop";60200109;"Barawitzkagasse";"Wien";90001;48.2446211909494;16.3556802768812;""
214460215;"stop";60200110;"Barichgasse";"Wien";90001;48.1980453868818;16.3950264863256;""
214460216;"stop";60200111;"Morelligasse";"Wien";90001;48.2504297189845;16.4041354033066;""
214460217;"stop";60200112;"Bauernfeldplatz";"Wien";90001;48.2208777337549;16.3607198256251;""
214460218;"stop";60200113;"Linzer Straße/Hochsatzengasse";"Wien";90001;48.1968538025152;16.2771046389792;""
214460219;"stop";60200114;"Baumgartner Friedhof";"Wien";90001;48.2015541125449;16.2790000842287;""
214460220;"stop";60200115;"Baumgasse";"Wien";90001;48.1932908598258;16.4047552408526;""
214460221;"stop";60200116;"Nußdorf, Beethovengang";"Wien";90001;48.2595449662256;16.3630554453638;""
214460222;"stop";60200117;"Belgradplatz";"Wien";90001;48.1742803205892;16.3607377919308;""
214460223;"stop";60200118;"Bellevuestraße";"Wien";90001;48.24867107879;16.3285242058422;""
214460224;"stop";60200119;"Jedlesee, Bellgasse";"Wien";90001;48.26224812605;16.3871662275896;""
214460225;"stop";60200120;"Belvederegasse";"Wien";90001;48.1901468811105;16.3719577498294;""
214460226;"stop";60200121;"Benatzkygasse";"Wien";90001;48.2301897372099;16.4395739412651;""
214460227;"stop";60200122;"Berggasse";"Wien";90001;48.2180646489047;16.3617349218961;""
214460228;"stop";60200123;"Bergmillergasse";"Wien";90001;48.2013744907877;16.2567757640996;""
214460229;"stop";60200124;"Yppengasse";"Wien";90001;48.2147126864166;16.335665812351;""
214460230;"stop";60200125;"Theodor-Körner-Gasse";"Wien";90001;48.2497178957151;16.4076567992203;""
214460231;"stop";60200126;"Berlepschgasse";"Wien";90001;"";"";""
214460232;"stop";60200127;"Fernkorngasse";"Wien";90001;48.1740766408535;16.3633339231019;""
214460233;"stop";60200128;"Bernreiterplatz";"Wien";90001;48.2814053647847;16.4063452589055;""
214460234;"stop";60200129;"Mühlschüttel";"Wien";90001;48.249251317104;16.4107919195619;""
214460235;"stop";60200130;"Berzeliusgasse";"Wien";90001;48.2756541643088;16.4104954755181;""
214460236;"stop";60200131;"Beschußamt";"Wien";90001;48.1773833412063;16.4339954033507;""
214460237;"stop";60200132;"Anton-Schall-Gasse";"Wien";90001;48.2893196796889;16.4158494346115;""
214460238;"stop";60200133;"Bettelheimstraße";"Wien";90001;48.2789961569016;16.4924936946526;""
214460239;"stop";60200134;"Bezirksamt Donaustadt";"Wien";90001;48.240355600455;16.4364388209235;""
214460240;"stop";60200135;"Döblinger Hptstr./Gatterburgg.";"Wien";90001;48.2389137145355;16.3546022985402;""
214460241;"stop";60200136;"Laxenburger Str./Gudrunstr.";"Wien";90001;48.1783597354899;16.3737543803977;""
214460242;"stop";60200137;"Bezirksamt Margareten";"Wien";90001;48.1906738852852;16.3549975572652;""
214460243;"stop";60200138;"Bibernellweg";"Wien";90001;48.2472533554225;16.4790998137664;""
214460244;"stop";60200139;"Kretschekgasse";"Wien";90001;48.224630267994;16.283509626955;""
214460245;"stop";60200140;"Binsenweg";"Wien";90001;48.2087085336498;16.464807617596;""
214460246;"stop";60200141;"Biomull-Werk";"Wien";90001;48.1730881835867;16.470691582707;""
214460247;"stop";60200142;"Bischoffgasse";"Wien";90001;48.1833791867911;16.3219934537267;""
214460248;"stop";60200143;"Bischofgasse";"Wien";90001;48.1380665348123;16.3976854995666;""
214460249;"stop";60200144;"Blaasstraße";"Wien";90001;48.2371247622384;16.3415138448506;""
214460250;"stop";60200145;"Blechturmgasse";"Wien";90001;48.1843554668806;16.3682746571645;""
214460251;"stop";60200146;"Bleibtreustraße";"Wien";90001;48.1779224569136;16.4492577800279;""
214460252;"stop";60200147;"Blériotgasse";"Wien";90001;48.1709734201109;16.4256410712084;""
214460253;"stop";60200148;"Blindengasse";"Wien";90001;48.2109713977147;16.3404807822739;""
214460254;"stop";60200149;"Blumengasse";"Wien";90001;48.2214941976573;16.3317311914066;""
214460255;"stop";60200150;"Hetmanekgasse";"Wien";90001;48.1373171795522;16.3169718712885;""
214460257;"stop";60200152;"Bohattaweg";"Wien";90001;48.137940643893;16.2297544403533;""
214460258;"stop";60200153;"Borkowskigasse";"Wien";90001;48.2371247622384;16.3301950722707;""
214460259;"stop";60200154;"Bossigasse";"Wien";90001;"";"";""
214460260;"stop";60200155;"Maculangasse/Wagramer Straße";"Wien";90001;48.262487336849;16.4536864743786;""
214460261;"stop";60200156;"Braillegasse";"Wien";90001;48.20277552379;16.2946397533253;""
214460262;"stop";60200157;"Brandstätte";"Wien";90001;48.2102650117309;16.3705384116805;""
214460263;"stop";60200158;"Braungasse";"Wien";90001;48.2269223505346;16.2960501083213;""
214460264;"stop";60200159;"Grimmgasse";"Wien";90001;48.1868769386215;16.3280391155888;""
214460265;"stop";60200160;"Braunhubergasse";"Wien";90001;48.1717881835058;16.4186701446036;""
214460266;"stop";60200161;"Braunschweiggasse";"Wien";90001;48.1894881182707;16.2954572202338;""
214460267;"stop";60200162;"Scheffelstraße";"Wien";90001;48.2516619274407;16.4055457583027;""
214460268;"stop";60200163;"Breiteneckergasse";"Wien";90001;48.1440250185469;16.3292877738337;""
214460269;"stop";60200164;"Breitenlee Friedhof";"Wien";90001;48.2511654586731;16.4929159028361;""
214460270;"stop";60200165;"Breitenlee Ort";"Wien";90001;48.2511953665666;16.4975871423135;""
214460271;"stop";60200166;"Breitensee";"Wien";90001;48.1982429836204;16.306362767783;""
214460272;"stop";60200167;"Roschégasse";"Wien";90001;48.1539323137541;16.4502908426046;""
214460273;"stop";60200168;"Bretschneidergasse";"Wien";90001;48.2542398985997;16.3481254453417;""
214460274;"stop";60200169;"Brigittagasse";"Wien";90001;48.2332774054181;16.3747245609045;""
214460275;"stop";60200170;"Brigittaplatz";"Wien";90001;48.232643132193;16.3703317991652;""
214460276;"stop";60200171;"Brockhausengasse";"Wien";90001;48.2076908108652;16.4770067391544;""
214460277;"stop";60200172;"Thaliastraße/Brunnengasse";"Wien";90001;48.2090497655855;16.3354322503771;""
214460278;"stop";60200173;"Neulerchenfelder Str./Brunneng";"Wien";90001;48.2110911231869;16.3359442900891;""
214460279;"stop";60200174;"Brunner Str./Erlaaer Str.";"Wien";90001;48.1461948378046;16.2968136763128;""
214460280;"stop";60200175;"Brückengasse";"Wien";90001;48.1913026899933;16.3476044224769;""
214460281;"stop";60200176;"Brünner Straße";"Wien";90001;48.2677556708484;16.4037042119702;""
214460282;"stop";60200177;"Bergtaidingweg";"Wien";90001;48.14660841173;16.3973171903001;""
214460283;"stop";60200178;"Brünnlbadgasse";"Wien";90001;48.2153950679987;16.345735926686;""
214460284;"stop";60200179;"Brüßlgasse";"Wien";90001;48.2060624123431;16.3203764862153;""
214460285;"stop";60200180;"Bubergasse";"Wien";90001;48.2704524171516;16.4514766187797;""
214460286;"stop";60200181;"Buchbindergasse";"Wien";90001;48.1636938932829;16.270331341737;""
214460287;"stop";60200182;"Grünhaufenbrücke";"Wien";90001;48.1909014535943;16.4542613961605;""
214460288;"stop";60200183;"Computerstr./Gutheil-Schoder-G";"Wien";90001;48.1599728472277;16.3368695548317;""
214460289;"stop";60200184;"Hütteldorf, Bujattigasse";"Wien";90001;48.2026318298611;16.2551408302825;""
214460290;"stop";60200185;"Bundessportbad";"Wien";90001;48.240206029116;16.4205655898531;""
214460291;"stop";60200186;"Bunsengasse";"Wien";90001;48.2631032995037;16.3910738990755;""
214460292;"stop";60200187;"Burgersteingasse";"Wien";90001;48.2025659700089;16.2982509807674;""
214460293;"stop";60200188;"Burggasse-Stadthalle";"Wien";90001;48.2022965424591;16.3373097293209;""
214460294;"stop";60200189;"Campingplatz Wien-West 2";"Wien";90001;48.214509167342;16.2495443260625;""
214460295;"stop";60200190;"Burgring";"Wien";90001;48.2039250607107;16.363720198674;""
214460296;"stop";60200191;"Burgstall";"Wien";90001;48.2699920071251;16.3612947474069;""
214460297;"stop";60200192;"Rathausplatz/Burgtheater";"Wien";90001;48.2104446023115;16.3606569435552;""
214460298;"stop";60200193;"Bärenmühldurchgang";"Wien";90001;48.1995123747969;16.3662893803866;""
214460299;"stop";60200194;"Börnergasse";"Wien";90001;48.2475644204551;16.3316323767253;""
214460300;"stop";60200195;"Börse";"Wien";90001;48.2155626691014;16.3660019194957;""
214460301;"stop";60200196;"Bösendorferstraße/Karlsplatz U";"Wien";90001;48.2012727048458;16.3707719736544;""
214460302;"stop";60200197;"Camillo-Sitte-Gasse";"Wien";90001;48.2050027281439;16.3273024970558;""
214460303;"stop";60200198;"Breitenfurter Str./Willergasse";"Wien";90001;48.1380665348123;16.257772894065;""
214460304;"stop";60200199;"Campingplatz Wien-Süd";"Wien";90001;48.149838968714;16.2994277737896;""
214460305;"stop";60200200;"Campingplatz Wien-West 1";"Wien";90001;48.2112826833602;16.2535148796183;""
214460306;"stop";60200201;"Campingplatzweg";"Wien";90001;48.2758275467608;16.4811300063085;""
214460307;"stop";60200202;"Canisiusgasse";"Wien";90001;48.2280474083223;16.3548089110556;""
214460308;"stop";60200203;"Carabelligasse";"Wien";90001;48.2802157205021;16.4108098858676;""
214460309;"stop";60200204;"Carlbergergasse";"Wien";90001;48.1412137074689;16.2979545367237;""
214460310;"stop";60200205;"Castelligasse";"Wien";90001;48.1886377028103;16.3583392901222;""
214460311;"stop";60200206;"Celtesgasse";"Wien";90001;48.2518234282899;16.2962297713781;""
214460312;"stop";60200207;"Hafen Freudenau";"Wien";90001;48.1786053286712;16.4723804154411;""
214460313;"stop";60200208;"Chimanistraße";"Wien";90001;48.2395060294373;16.343867430895;""
214460314;"stop";60200209;"Cobenzl Parkplatz";"Wien";90001;48.2638687573135;16.3211490373596;""
214460315;"stop";60200210;"Cobenzlgasse";"Wien";90001;48.2639405183955;16.3299974429082;""
214460316;"stop";60200211;"Columbusplatz";"Wien";90001;48.182037520014;16.3737184477863;""
214460317;"stop";60200212;"Triester Str./Computerstr.";"Wien";90001;48.1576358204124;16.3420169014097;""
214460318;"stop";60200213;"Concordiaplatz";"Wien";90001;48.2137010689159;16.3700623045799;""
214460319;"stop";60200214;"Corvinusgasse";"Wien";90001;48.1445644849411;16.2807428158799;""
214460320;"stop";60200215;"Cottagegasse";"Wien";90001;48.2338518347618;16.3421336823967;""
214460321;"stop";60200216;"Cottagestraße";"Wien";90001;48.2151676084818;16.2262959265094;""
214460322;"stop";60200217;"Czartoryskigasse";"Wien";90001;48.2278080363962;16.3274462275013;""
214460323;"stop";60200218;"Dahliengasse";"Wien";90001;48.2869108450886;16.4449009508999;""
214460324;"stop";60200219;"Dammstraße";"Wien";90001;48.2345997799714;16.3751377859352;""
214460325;"stop";60200220;"Dampfkraftwerk Donaustadt";"Wien";90001;48.1980274235041;16.4600914623544;""
214460326;"stop";60200221;"Dampfschiffhaufen";"Wien";90001;48.2171368955376;16.432225722241;""
214460327;"stop";60200222;"Danzergasse";"Wien";90001;48.2087324798247;16.4886129726252;""
214460328;"stop";60200223;"Daphneweg";"Wien";90001;48.2443519846746;16.5302498860441;""
214460329;"stop";60200224;"Daringergasse";"Wien";90001;48.2466491660105;16.3344620698703;""
214460330;"stop";60200225;"Davidgasse";"Wien";90001;48.1754724298752;16.3563270638857;""
214460331;"stop";60200226;"Deindorfstraße";"Wien";90001;48.2168555734528;16.5432035924411;""
214460332;"stop";60200227;"Deißenhofergasse";"Wien";90001;48.1585466742932;16.2805901022816;""
214460333;"stop";60200228;"Laxenburger Str./Heizwerkstr.";"Wien";90001;48.1396071748666;16.358743532;""
214460334;"stop";60200229;"Dietmayrgasse";"Wien";90001;48.2393145748656;16.3686699158895;""
214460335;"stop";60200230;"Dirnelwiese";"Wien";90001;48.2929118001261;16.3792969857007;""
214460336;"stop";60200231;"Dobrowskygasse";"Wien";90001;48.1435514822615;16.3317401745594;""
214460337;"stop";60200232;"Doeltergasse";"Wien";90001;48.2594911407954;16.4382534177974;""
214460338;"stop";60200233;"Dommayergasse";"Wien";90001;48.1864696784265;16.2989157340777;""
214460339;"stop";60200234;"Donauinsel";"Wien";90001;48.2289989006584;16.4109805657716;""
214460340;"stop";60200235;"Floridsdorfer Brücke";"Wien";90001;48.2485634049766;16.3877411493714;""
214460341;"stop";60200236;"Donaustadtstraße";"Wien";90001;48.233684293536;16.4436882252664;""
214460342;"stop";60200237;"Donauwarte";"Wien";90001;48.2845556959609;16.3459784718127;""
214460343;"stop";60200238;"Siebeckstraße";"Wien";90001;48.2418333417788;16.4346511735081;""
214460344;"stop";60200239;"Dopschstraße";"Wien";90001;48.2692385999523;16.4388283395793;""
214460345;"stop";60200240;"Dorfmeistergasse";"Wien";90001;48.1645267474588;16.2961758724611;""
214460346;"stop";60200241;"Dornbacher Straße";"Wien";90001;48.228161109595;16.3018711913624;""
214460347;"stop";60200242;"Dostalgasse";"Wien";90001;48.1598949480491;16.2631268531583;""
214460348;"stop";60200243;"Dostgasse";"Wien";90001;48.2201535288135;16.2531735198103;""
214460349;"stop";60200244;"Dr.-Adolf-Schärf-Heim";"Wien";90001;48.2458296105496;16.3698826415231;""
214460350;"stop";60200245;"Stubentor";"Wien";90001;48.2070681940144;16.3802761493604;""
214460351;"stop";60200246;"Ring/Volkstheater U";"Wien";90001;48.206780829838;16.3598574429523;""
214460352;"stop";60200247;"Dr.-Neumann-Gasse";"Wien";90001;48.1381804358543;16.2882257821966;""
214460353;"stop";60200248;"Dr.-Schober-Straße";"Wien";90001;48.1667616058592;16.2726669614757;""
214460354;"stop";60200249;"Draugasse";"Wien";90001;48.285470271845;16.4386307102168;""
214460355;"stop";60200250;"Dunantgasse";"Wien";90001;48.2600293925476;16.3889269255464;""
214460356;"stop";60200251;"Dänenstraße";"Wien";90001;48.2371008293422;16.3345519013987;""
214460357;"stop";60200252;"Döblinger Bad";"Wien";90001;48.2512312560157;16.3572702949341;""
214460358;"stop";60200253;"Döblinger Friedhof";"Wien";90001;48.2391111535981;16.3293955716678;""
214460359;"stop";60200254;"Döblinger Steg";"Wien";90001;48.2407743978774;16.3654000482553;""
214460360;"stop";60200255;"Dörmanngasse";"Wien";90001;48.2224757365113;16.5340856923073;""
214460361;"stop";60200256;"Kraftwerk Simmering";"Wien";90001;48.1850142956962;16.4308063840921;""
214460362;"stop";60200257;"Eberstorferweg";"Wien";90001;48.1547353621675;16.2800870457225;""
214460363;"stop";60200258;"Edelsteingasse";"Wien";90001;48.2622959682994;16.425605138597;""
214460364;"stop";60200259;"Edenstraße";"Wien";90001;48.2148024739865;16.2463283573453;""
214460365;"stop";60200260;"Edmund-Hawranek-Platz";"Wien";90001;48.2914056506059;16.3865463900435;""
214460366;"stop";60200261;"Eduard-Kittenberger-Gasse";"Wien";90001;48.1368016167822;16.3034701925681;""
214460367;"stop";60200262;"Albrechtskreithgasse";"Wien";90001;48.2192796811127;16.3204663177437;""
214460368;"stop";60200263;"Egon-Friedell-Gasse";"Wien";90001;48.2738904128279;16.436411871465;""
214460369;"stop";60200264;"Eibesbrunnergasse";"Wien";90001;48.171033329625;16.3374624429192;""
214460371;"stop";60200266;"Eichbachgasse";"Wien";90001;48.2216318536312;16.2473793862277;""
214460372;"stop";60200267;"Eichenstraße";"Wien";90001;48.180426275557;16.3498412275344;""
214460373;"stop";60200268;"Einsiedeleigasse";"Wien";90001;48.1833851762962;16.2643485619447;""
214460374;"stop";60200269;"Einsiedlerplatz";"Wien";90001;48.1852598569974;16.3494729182679;""
214460375;"stop";60200270;"Luzegasse";"Wien";90001;48.1608237382456;16.450156095312;""
214460376;"stop";60200271;"Eipeldauer Straße";"Wien";90001;48.2630434976295;16.4362591578667;""
214460377;"stop";60200272;"Eisenstadtplatz";"Wien";90001;48.1694756595115;16.3845700964185;""
214460378;"stop";60200273;"Eisstoßgasse";"Wien";90001;48.2179569106669;16.4409214141913;""
214460379;"stop";60200274;"Elderschplatz";"Wien";90001;48.2179449397375;16.412256173475;""
214460380;"stop";60200275;"Elsbeergasse";"Wien";90001;48.2184596871705;16.2544042117495;""
214460381;"stop";60200276;"Elterleinplatz";"Wien";90001;48.2181783723543;16.3310574549435;""
214460382;"stop";60200277;"Embelgasse";"Wien";90001;48.1827143473756;16.3524193923998;""
214460383;"stop";60200278;"Endemanngasse";"Wien";90001;48.153093294524;16.2904356377956;""
214460384;"stop";60200279;"Engerthstraße/Innstraße";"Wien";90001;48.2335167517616;16.3925830687528;""
214460385;"stop";60200280;"Engerthstraße/Traisengasse";"Wien";90001;48.2363289874361;16.3892233695902;""
214460386;"stop";60200281;"Englisch-Feld-Gasse";"Wien";90001;48.2099237878926;16.5359991038625;""
214460387;"stop";60200282;"Donaumarina";"Wien";90001;48.2061222808525;16.4309680808432;""
214460388;"stop";60200283;"Erdbergstr./Schlachthausgasse";"Wien";90001;48.1952909287469;16.4079712095698;""
214460390;"stop";60200285;"Erlaaer Straße";"Wien";90001;48.1418491132051;16.3165316967992;""
214460391;"stop";60200286;"Erlachplatz";"Wien";90001;48.1786173087962;16.3694604333396;""
214460392;"stop";60200287;"Erndtgasse";"Wien";90001;48.2373222082052;16.3226582070369;""
214460393;"stop";60200288;"Erzherzog-Karl-Straße";"Wien";90001;48.2295673939261;16.4532283335837;""
214460394;"stop";60200289;"Erdberg";"Wien";90001;48.1915242669567;16.4139989051262;""
214460395;"stop";60200290;"Donaustadtbrücke";"Wien";90001;48.2117915115908;16.4401308967413;""
214460396;"stop";60200291;"Eselstiege";"Wien";90001;48.2243908800855;16.2868154272006;""
214460397;"stop";60200292;"Eslarngasse";"Wien";90001;48.1967280558147;16.3958798858455;""
214460398;"stop";60200293;"Esterházygasse";"Wien";90001;48.1951232612965;16.350937172181;""
214460399;"stop";60200294;"Etrichstraße";"Wien";90001;48.148436488434;16.4614389352806;""
214460400;"stop";60200295;"Daumegasse";"Wien";90001;48.1639874909027;16.3743921842494;""
214460401;"stop";60200296;"Evangelischer Friedhof";"Wien";90001;48.1798452567679;16.360270667983;""
214460402;"stop";60200297;"Eßling Schule";"Wien";90001;48.2140901549353;16.5263601808639;""
214460403;"stop";60200298;"Eßling Friedhof";"Wien";90001;48.2162629963445;16.5316512578873;""
214460404;"stop";60200299;"Aspernstraße";"Wien";90001;48.2224458118244;16.4747609509441;""
214460405;"stop";60200300;"Fasangasse";"Wien";90001;48.1884101244485;16.3850282372134;""
214460406;"stop";60200301;"Heiligenstadt, 12.-Februar-Pl.";"Wien";90001;48.2489282986487;16.3627140855558;""
214460407;"stop";60200302;"Diesterweggasse";"Wien";90001;48.1937579487766;16.3063358183245;""
214460408;"stop";60200303;"Wattmanngasse/Elisabethallee";"Wien";90001;48.1763829670413;16.2953584055525;""
214460409;"stop";60200304;"Döblinger Frhf./F.-Dahn-Str.";"Wien";90001;48.2400385086972;16.325990956741;""
214460410;"stop";60200305;"Felmayergasse";"Wien";90001;48.2729696505787;16.4322886043109;""
214460411;"stop";60200306;"Fendigasse";"Wien";90001;48.1839362077705;16.3557880747153;""
214460412;"stop";60200307;"Sonnleithnergasse";"Wien";90001;48.1789287910659;16.3639627438008;""
214460413;"stop";60200308;"Gspöttgraben";"Wien";90001;48.2558847078683;16.3145554031742;""
214460414;"stop";60200309;"Fernsprechamt Heiligenstadt";"Wien";90001;48.2541262552779;16.3605760951796;""
214460416;"stop";60200311;"Feuerwache Am Steinhof";"Wien";90001;48.2153352103291;16.2780568531804;""
214460417;"stop";60200312;"Feuerwache Grinzing";"Wien";90001;48.2615304869365;16.332494759398;""
214460419;"stop";60200314;"Fickeysstraße";"Wien";90001;48.1672409193752;16.4235569797492;""
214460420;"stop";60200315;"Filmteichstraße";"Wien";90001;48.1526258350019;16.3968500663524;""
214460421;"stop";60200316;"Finsterbuschstraße Nord";"Wien";90001;48.172255468435;16.4998059810653;""
214460422;"stop";60200317;"Billgasse";"Wien";90001;48.2244387577568;16.4833578282131;""
214460423;"stop";60200318;"Löschniggasse";"Wien";90001;48.2227390730017;16.4806179665965;""
214460424;"stop";60200319;"1. Haidequerstraße Mitte";"Wien";90001;48.1824388258114;16.4291265345108;""
214460425;"stop";60200320;"Dammhaufengasse";"Wien";90001;48.195650214293;16.4472365706386;""
214460426;"stop";60200321;"Pfarrgasse/Traviatagasse";"Wien";90001;48.1425924080468;16.3431757281262;""
214460427;"stop";60200322;"Zimbagasse";"Wien";90001;48.2061582019246;16.2192261852234;""
214460428;"stop";60200323;"Auhof";"Wien";90001;48.2075650907648;16.2182021057995;""
214460429;"stop";60200324;"1. Haidequerstraße Süd";"Wien";90001;48.1809174409433;16.4281383876983;""
214460430;"stop";60200325;"Giefinggasse";"Wien";90001;48.2683057947301;16.4259105657936;""
214460432;"stop";60200327;"Rodaun Wohnheim";"Wien";90001;48.1272567756318;16.2289729060561;""
214460433;"stop";60200328;"Heinrich-von-Buol-Gasse";"Wien";90001;48.2649511429323;16.4257039532783;""
214460434;"stop";60200329;"Fischergrund";"Wien";90001;48.2155207688772;16.4408854815799;""
214460435;"stop";60200330;"Fichtnergasse";"Wien";90001;48.1871224909987;16.288881552354;""
214460436;"stop";60200331;"Florian-Geyer-Gasse";"Wien";90001;48.1569346916079;16.3918015344556;""
214460437;"stop";60200332;"Florian-Hedorfer-Straße";"Wien";90001;48.1656172267256;16.4312555417341;""
214460438;"stop";60200333;"Florianigasse";"Wien";90001;48.2127911946835;16.3456820277689;""
214460439;"stop";60200334;"Floridsdorf";"Wien";90001;48.2567938161037;16.4002995970434;""
214460440;"stop";60200335;"Joseph-Lister-Gasse";"Wien";90001;48.1751429552059;16.2695318411341;""
214460441;"stop";60200336;"Flotowgasse";"Wien";90001;48.2405889308704;16.3383607582034;""
214460442;"stop";60200337;"Flugfeldstraße";"Wien";90001;48.2156584409137;16.5043334900973;""
214460443;"stop";60200338;"Flötzersteig";"Wien";90001;48.2038352540677;16.2788563537833;""
214460444;"stop";60200339;"Flötzersteigbrücke";"Wien";90001;48.2071879286119;16.2907769976035;""
214460445;"stop";60200340;"Mauerbachstraße/Baumschule";"Wien";90001;48.2181245033834;16.2178966786029;""
214460446;"stop";60200341;"Forsthausgasse";"Wien";90001;48.2452373688674;16.3749850723369;""
214460447;"stop";60200342;"Frachtenbahnhof Lobau Hafen";"Wien";90001;48.1864217652497;16.4776355598532;""
214460448;"stop";60200343;"Franz-Asenbauer-Gasse";"Wien";90001;48.1547413550189;16.2712745727853;""
214460449;"stop";60200344;"Franz-Josef-Spital";"Wien";90001;48.174915316925;16.3488890133332;""
214460450;"stop";60200345;"Franz-Josefs-Bahnhof";"Wien";90001;48.225988773169;16.3611510169615;""
214460451;"stop";60200346;"Krankenanstalt Rudolfstiftung";"Wien";90001;48.1966202726828;16.392286624709;""
214460452;"stop";60200347;"Franz-Pletersky-Weg";"Wien";90001;48.2132700778739;16.4506232192598;""
214460453;"stop";60200348;"Franzensbrücke";"Wien";90001;48.2137908582598;16.3917296692329;""
214460454;"stop";60200349;"Franzosenweg";"Wien";90001;48.1401526822458;16.3827914321559;""
214460455;"stop";60200350;"Forchheimergasse";"Wien";90001;48.1409559462957;16.3078090553904;""
214460456;"stop";60200351;"Freesienweg";"Wien";90001;48.2045896249744;16.2426272983747;""
214460457;"stop";60200352;"Freiheitsplatz";"Wien";90001;48.3014338568748;16.4162446933365;""
214460458;"stop";60200353;"Freihofsiedlung";"Wien";90001;48.242527327021;16.450272876299;""
214460459;"stop";60200354;"Kraftwerk Freudenau";"Wien";90001;48.1744240940332;16.4791357463777;""
214460460;"stop";60200355;"Freyenthurmgasse";"Wien";90001;48.2054397756961;16.2567937304053;""
214460461;"stop";60200356;"Freytaggasse";"Wien";90001;"";"";""
214460462;"stop";60200357;"Friedensbrücke";"Wien";90001;48.2270300699041;16.3648790253906;""
214460463;"stop";60200358;"Baumgarten";"Wien";90001;48.1990633013251;16.2714901684535;""
214460464;"stop";60200359;"Friedensgasse";"Wien";90001;48.2032545006422;16.4024645368781;""
214460465;"stop";60200360;"Mariabrunn Kirche";"Wien";90001;48.2077327174967;16.2314163236289;""
214460466;"stop";60200361;"Friedjunggasse";"Wien";90001;48.1652217808796;16.4191282853985;""
214460467;"stop";60200362;"Obkirchergasse";"Wien";90001;48.2457338951867;16.3421336823967;""
214460468;"stop";60200363;"Friedrich-Engels-Platz";"Wien";90001;48.2442742137092;16.3797281770371;""
214460469;"stop";60200364;"Friedstraße";"Wien";90001;48.2454407657738;16.4046384598657;""
214460470;"stop";60200365;"Frödenplatz";"Wien";90001;48.1553046799216;16.3586537004716;""
214460471;"stop";60200366;"Frömmlgasse";"Wien";90001;48.2562495492994;16.3921249279579;""
214460472;"stop";60200367;"Fröschelgasse";"Wien";90001;48.2519310952393;16.3205202166607;""
214460473;"stop";60200368;"Flurschützstr./Längenfeldgasse";"Wien";90001;48.1793540811087;16.3400675572432;""
214460474;"stop";60200369;"Fultonstraße";"Wien";90001;48.2532170996102;16.4140438208904;""
214460475;"stop";60200370;"Funkengerngasse";"Wien";90001;48.2153830964704;16.2934360108445;""
214460476;"stop";60200371;"Seegasse";"Wien";90001;48.2230682417096;16.3613935620882;""
214460477;"stop";60200372;"Ottakringer Friedhof";"Wien";90001;48.2140781831019;16.3015208484016;""
214460478;"stop";60200373;"Kaltenleutgebner Str. 10/63";"Wien";90001;48.1318255704612;16.2463193741925;""
214460479;"stop";60200374;"Altes Gasthaus Maut";"Wien";90001;48.1290855415083;16.232880577542;""
214460480;"stop";60200375;"Gasthaus Zum Friedhof";"Wien";90001;48.2964558576545;16.4332138690535;""
214460481;"stop";60200376;"Gatterburggasse";"Wien";90001;48.2392008983747;16.3492303731412;""
214460482;"stop";60200377;"Gattergasse";"Wien";90001;48.1605121459896;16.422550866631;""
214460483;"stop";60200378;"Gatterhölzl";"Wien";90001;48.1758797774484;16.3187595187039;""
214460484;"stop";60200379;"Gaudenzdorfer Gürtel";"Wien";90001;48.1872422722193;16.3430948797507;""
214460485;"stop";60200380;"Gaußplatz";"Wien";90001;48.2262820140478;16.3699095909816;""
214460486;"stop";60200381;"Gaßmannstraße";"Wien";90001;48.1747715448584;16.3133426775406;""
214460487;"stop";60200382;"Geiereckstraße";"Wien";90001;48.1750351266725;16.3992216187024;""
214460488;"stop";60200383;"Geistingergasse";"Wien";90001;48.2453689787227;16.3627500181672;""
214460489;"stop";60200384;"Gellertplatz";"Wien";90001;48.1750111647454;16.3826387185576;""
214460490;"stop";60200385;"Gemeindeberggasse";"Wien";90001;48.1811809911617;16.2648606016567;""
214460491;"stop";60200386;"General-Motors-Werk";"Wien";90001;48.2177115060564;16.5031297476166;""
214460492;"stop";60200387;"Genochplatz";"Wien";90001;48.2291604730716;16.4557975152963;""
214460493;"stop";60200388;"Brünner Str./Hanreitergasse";"Wien";90001;48.2841432348118;16.4130107583137;""
214460494;"stop";60200389;"Gerhardusgasse";"Wien";90001;48.2316976914714;16.3662534477753;""
214460495;"stop";60200390;"Geringergasse";"Wien";90001;48.1680018203818;16.4259644647107;""
214460496;"stop";60200391;"Gernotgasse";"Wien";90001;48.2197405478549;16.5330436465777;""
214460497;"stop";60200392;"Geroldgasse";"Wien";90001;48.2390632896529;16.2835904753306;""
214460498;"stop";60200393;"Gersthof";"Wien";90001;48.2311591414791;16.3291170939298;""
214460499;"stop";60200394;"Ehrenpreisgasse";"Wien";90001;48.2180706343558;16.4611424912368;""
214460500;"stop";60200395;"Gersthofer Friedhof";"Wien";90001;48.2299743115451;16.3161993201441;""
214460501;"stop";60200396;"Getreidemarkt";"Wien";90001;48.2018115692984;16.362929681224;""
214460502;"stop";60200397;"Geusaugasse";"Wien";90001;48.2038532154089;16.3942898677926;""
214460504;"stop";60200399;"Zippererstraße";"Wien";90001;48.1794978403254;16.411124296217;""
214460505;"stop";60200400;"Heinrich-Drimmel-Platz";"Wien";90001;48.1879489757221;16.3911188148397;""
214460506;"stop";60200401;"Ghelengasse";"Wien";90001;48.1803004885426;16.2595066425633;""
214460507;"stop";60200402;"Gitlbauergasse";"Wien";90001;"";"";""
214460508;"stop";60200403;"Gladiolenweg";"Wien";90001;48.2375495692835;16.4790548980022;""
214460509;"stop";60200404;"Glanzing";"Wien";90001;48.2432512153875;16.3215532792375;""
214460510;"stop";60200405;"Glatzgasse";"Wien";90001;48.2333492094387;16.3531739772385;""
214460511;"stop";60200406;"Glawatschweg";"Wien";90001;48.1636759178639;16.2661901082772;""
214460512;"stop";60200407;"Glockengasse";"Wien";90001;48.2178372012478;16.3817404032735;""
214460513;"stop";60200408;"Gloriettegasse";"Wien";90001;48.1829958570096;16.2920615884598;""
214460514;"stop";60200409;"Glossystraße";"Wien";90001;48.2124380154611;16.2359528158137;""
214460515;"stop";60200410;"Gobergasse";"Wien";90001;48.1793660610589;16.2686155595443;""
214460516;"stop";60200411;"Goethehof";"Wien";90001;48.229196377983;16.4193798136781;""
214460517;"stop";60200412;"Gogolgasse";"Wien";90001;48.1827922118972;16.2758559807343;""
214460518;"stop";60200413;"Goldhammergasse";"Wien";90001;48.1443067405934;16.3227570217182;""
214460519;"stop";60200414;"Gotthelfgasse";"Wien";90001;48.2272754298437;16.4726858426377;""
214460520;"stop";60200415;"Graben/Petersplatz";"Wien";90001;48.2091575225665;16.3695682311737;""
214460521;"stop";60200416;"Graf-Seilern-Gasse";"Wien";90001;48.1706558985177;16.308231263574;""
214460522;"stop";60200417;"Grasbergergasse";"Wien";90001;48.1864397326962;16.4006679063099;""
214460523;"stop";60200418;"Grasgasse";"Wien";90001;48.2299563593654;16.2822519855572;""
214460524;"stop";60200419;"Gredlerstraße";"Wien";90001;48.2140063520425;16.3798719074825;""
214460525;"stop";60200420;"Gregor-Mendel-Straße";"Wien";90001;48.2338578183669;16.337758886963;""
214460526;"stop";60200421;"Gregorygasse";"Wien";90001;48.1572043576666;16.3053925872762;""
214460527;"stop";60200422;"Eßling, Schippanisiedlung";"Wien";90001;48.2193754459721;16.5442995370877;""
214460528;"stop";60200423;"Greutberggasse";"Wien";90001;48.2278798480916;16.2051585678741;""
214460529;"stop";60200424;"Griegstraße";"Wien";90001;48.2492154262652;16.375317448992;""
214460530;"stop";60200425;"Enkplatz";"Wien";90001;48.1743402262398;16.415310445441;""
214460531;"stop";60200426;"Grinzing";"Wien";90001;48.2554899584695;16.3421516487023;""
214460532;"stop";60200427;"Am Bahnhof";"Wien";90001;48.2239480095032;16.4510903432075;""
214460533;"stop";60200428;"Grinzinger Straße";"Wien";90001;48.2547542810027;16.365364115644;""
214460534;"stop";60200429;"Donaustadtstraße/Lange Allee";"Wien";90001;48.2273771641078;16.4445236584806;""
214460535;"stop";60200430;"Großer Biberhaufen";"Wien";90001;48.2022067329609;16.4733775454065;""
214460536;"stop";60200431;"Großjedlersdorf";"Wien";90001;48.2765031348401;16.4085730808101;""
214460537;"stop";60200432;"Großmarktstraße";"Wien";90001;48.1465244984494;16.3670080326139;""
214460538;"stop";60200433;"Grundäckergasse/Laaer-Berg-Str";"Wien";90001;"";"";""
214460539;"stop";60200434;"Gruschaplatz";"Wien";90001;48.1953927265741;16.2826382611294;""
214460540;"stop";60200435;"Gräßlplatz";"Wien";90001;48.1766824823116;16.397326173453;""
214460541;"stop";60200436;"Gumpendorfer Straße";"Wien";90001;48.1907277831339;16.3375612576005;""
214460542;"stop";60200437;"Grenzgasse";"Wien";90001;48.1932848714783;16.3296830325588;""
214460543;"stop";60200438;"Guneschgasse";"Wien";90001;48.2365324197662;16.3535512696578;""
214460544;"stop";60200439;"Gunoldstraße";"Wien";90001;48.2446570850123;16.3617079724376;""
214460545;"stop";60200440;"Guntherstraße";"Wien";90001;48.2023743772302;16.3267635078854;""
214460546;"stop";60200441;"Eßling, Stadtgrenze";"Wien";90001;48.2084451249865;16.5399427079598;""
214460547;"stop";60200442;"Gusenleithnergasse";"Wien";90001;48.1946501966037;16.2900583453762;""
214460548;"stop";60200443;"Gustav-Pick-Gasse";"Wien";90001;48.2419829083597;16.3261257040336;""
214460549;"stop";60200444;"Gutheil-Schoder-Gasse";"Wien";90001;48.1593496504864;16.3357107281152;""
214460550;"stop";60200445;"Gutraterplatz";"Wien";90001;48.2077207441769;16.3093451745263;""
214460551;"stop";60200446;"Gußhausstraße";"Wien";90001;48.1978118624808;16.3751557522409;""
214460552;"stop";60200447;"Gußriegelstraße";"Wien";90001;48.1663302198649;16.3588333635284;""
214460553;"stop";60200448;"Gymnasiumstraße";"Wien";90001;48.2300102158855;16.3447477798734;""
214460554;"stop";60200449;"Günselgasse";"Wien";90001;48.2165562929422;16.2548623525444;""
214460555;"stop";60200450;"Dornbach";"Wien";90001;48.2263657968474;16.307719223862;""
214460556;"stop";60200451;"Gütenbachstraße";"Wien";90001;48.1378806957277;16.2415403368809;""
214460558;"stop";60200453;"Lusthaus";"Wien";90001;48.1910930892812;16.4398434358503;""
214460559;"stop";60200454;"Haberditzlgasse";"Wien";90001;48.2704763344423;16.4531654515138;""
214460560;"stop";60200455;"Haberlandtgasse";"Wien";90001;48.2188307809465;16.4899334960928;""
214460561;"stop";60200456;"Neulerchenfelder Str/Haberlg";"Wien";90001;48.211701718741;16.3311562696247;""
214460562;"stop";60200457;"Habsburgergasse";"Wien";90001;48.2076249575177;16.3677985500639;""
214460563;"stop";60200458;"Beingasse";"Wien";90001;48.1994045975227;16.3322791637299;""
214460564;"stop";60200459;"Hadersdorfer Hauptstraße";"Wien";90001;48.2099178014891;16.2192351683763;""
214460565;"stop";60200460;"Hadersdorf";"Wien";90001;48.2103787525051;16.2235830143514;""
214460566;"stop";60200461;"Oberzellergasse";"Wien";90001;48.1918656133768;16.3949636042557;""
214460567;"stop";60200462;"Stammersdorfer Kellergasse";"Wien";90001;48.3072717800521;16.4034257342321;""
214460568;"stop";60200463;"11. Haidequerstraße";"Wien";90001;48.1753586115924;16.4632625153073;""
214460569;"stop";60200464;"7. Haidequerstraße";"Wien";90001;48.1791264615246;16.4423227860345;""
214460570;"stop";60200465;"Haidestraße";"Wien";90001;48.1795158101991;16.4266921000908;""
214460571;"stop";60200466;"Dreherstraße";"Wien";90001;48.1568507952117;16.4738356862014;""
214460572;"stop";60200467;"Eckpergasse";"Wien";90001;48.2333252747763;16.3160466065458;""
214460573;"stop";60200468;"Halteraugasse";"Wien";90001;48.2519490397089;16.3639357943422;""
214460574;"stop";60200469;"Halterlacken";"Wien";90001;48.1601166607852;16.4612772385294;""
214460575;"stop";60200470;"Hans-Mandl-Berufsschule";"Wien";90001;48.1815283961976;16.3386033033301;""
214460576;"stop";60200471;"Empergergasse";"Wien";90001;48.2863071243184;16.414178568183;""
214460577;"stop";60200472;"Hütteldorfer Str./Lützowgasse";"Wien";90001;48.197243016537;16.2948912816048;""
214460578;"stop";60200473;"Hardeggasse";"Wien";90001;48.2208897039984;16.457791775227;""
214460579;"stop";60200474;"Hardtgasse";"Wien";90001;48.2370589467468;16.3490417269315;""
214460580;"stop";60200475;"Harrachgasse";"Wien";90001;48.2222961881274;16.4251919135663;""
214460581;"stop";60200476;"Hartlebengasse";"Wien";90001;48.2256656078057;16.4647447355261;""
214460582;"stop";60200477;"Haschafeld";"Wien";90001;48.2252047944064;16.4751831591276;""
214460583;"stop";60200478;"Haselbrunnerstraße";"Wien";90001;48.1372692204432;16.2504246750409;""
214460584;"stop";60200479;"Hasenleiten";"Wien";90001;48.1617585036579;16.4178706440008;""
214460586;"stop";60200481;"Hasnerstraße";"Wien";90001;48.2103667798039;16.3185349398828;""
214460587;"stop";60200482;"Haspelmeistergasse";"Wien";90001;48.2177534044878;16.2441634175106;""
214460588;"stop";60200483;"Haspingerplatz";"Wien";90001;48.2773640482963;16.4050966006606;""
214460589;"stop";60200484;"Geiselbergstraße";"Wien";90001;48.1753885637966;16.4071896752726;""
214460590;"stop";60200485;"Donaustadtstraße/Deinleingasse";"Wien";90001;48.2216438236984;16.4438858546289;""
214460591;"stop";60200486;"Prater, Hauptallee";"Wien";90001;48.209438886948;16.4060667811674;""
214460592;"stop";60200487;"Hausfeldstraße";"Wien";90001;48.2335347026923;16.487040920878;""
214460593;"stop";60200488;"Dreimarkstein";"Wien";90001;48.2584206010213;16.2874981468165;""
214460594;"stop";60200489;"Hawlicekgasse";"Wien";90001;48.2603164578315;16.4157146873189;""
214460596;"stop";60200491;"Heiligenstadt";"Wien";90001;48.2489641896889;16.3657234417576;""
214460598;"stop";60200493;"Heiligenstädter Brücke";"Wien";90001;48.2442263545948;16.3682387245532;""
214460599;"stop";60200494;"Taborstraße/Heinestraße";"Wien";90001;48.2222842182128;16.382333291361;""
214460600;"stop";60200495;"Siemensstr./H.-von-Buol-Gasse";"Wien";90001;48.2670799671075;16.4282282192267;""
214460601;"stop";60200496;"Heizwerkstr.";"Wien";90001;48.1390077095233;16.3626152708746;""
214460603;"stop";60200498;"Helferstorferstr.";"Wien";90001;48.2139165630766;16.3654359808667;""
214460604;"stop";60200499;"Hellingstraße";"Wien";90001;48.1874818338205;16.4561209087986;""
214460605;"stop";60200500;"Dresdner Straße";"Wien";90001;48.2369811646931;16.3795215645217;""
214460606;"stop";60200501;"Henriettenplatz";"Wien";90001;48.1901708359633;16.3319737365333;""
214460607;"stop";60200502;"Herbeckstraße";"Wien";90001;48.2324636194754;16.3175018773061;""
214460608;"stop";60200503;"Heringgasse";"Wien";90001;48.233917654379;16.5214374131069;""
214460609;"stop";60200504;"Speising, Hermesstraße";"Wien";90001;48.1681995329687;16.284021666667;""
214460610;"stop";60200505;"Hernals";"Wien";90001;48.2232358176932;16.3148787966765;""
214460611;"stop";60200506;"Herrengasse";"Wien";90001;48.2094867786037;16.3658492058974;""
214460612;"stop";60200507;"Hernalser Gürtel";"Wien";90001;48.2151795800606;16.3409029904574;""
214460613;"stop";60200508;"Hernals, Wattgasse";"Wien";90001;48.2215181378533;16.3213107341108;""
214460614;"stop";60200509;"Hertlgasse";"Wien";90001;48.215251409474;16.2804643381418;""
214460615;"stop";60200510;"Herzgasse";"Wien";90001;48.1724351922739;16.3656785259934;""
214460616;"stop";60200511;"Hetzendorf";"Wien";90001;48.1659287879721;16.3140433634622;""
214460617;"stop";60200512;"Freudenauer Hafenstraße";"Wien";90001;48.1830857001843;16.4653466067665;""
214460618;"stop";60200513;"Hetzgasse";"Wien";90001;48.2083972323568;16.3929334117136;""
214460619;"stop";60200514;"Heuberg";"Wien";90001;48.2260426338646;16.2834108122738;""
214460620;"stop";60200515;"Heuberggasse";"Wien";90001;48.2287834699806;16.2976221600685;""
214460621;"stop";60200516;"Heudörfelgasse";"Wien";90001;48.1531172666924;16.264052117901;""
214460622;"stop";60200517;"Schönbr. Str./Kettenbrückeng.";"Wien";90001;48.1949376288365;16.3609893202103;""
214460625;"stop";60200520;"Hietzing";"Wien";90001;48.187793262228;16.3038654512932;""
214460626;"stop";60200521;"Obere Waldandacht";"Wien";90001;48.2530436404426;16.2735922262183;""
214460627;"stop";60200522;"Hildebrandgasse";"Wien";90001;48.2231580146262;16.3385763538715;""
214460628;"stop";60200523;"Hillerstraße";"Wien";90001;48.2211291082814;16.4077825633601;""
214460629;"stop";60200524;"Himberger Straße";"Wien";90001;48.1433237037581;16.3826387185576;""
214460630;"stop";60200525;"Himmelmutterweg";"Wien";90001;48.2306624736847;16.2960411251685;""
214460631;"stop";60200526;"Himmelstraße";"Wien";90001;48.2572364024203;16.3374804092249;""
214460632;"stop";60200527;"Hintere Zollamtsstraße";"Wien";90001;48.2111569720773;16.3870584297555;""
214460633;"stop";60200528;"Am Krautgarten";"Wien";90001;48.2347972356825;16.461187407001;""
214460634;"stop";60200529;"Hirschengasse";"Wien";90001;48.1932489413784;16.3493022383639;""
214460635;"stop";60200530;"Hirschstetten Ort";"Wien";90001;48.234827153148;16.4662449220506;""
214460636;"stop";60200531;"Blumengärten Hirschstetten";"Wien";90001;48.2358862201568;16.471877358882;""
214460637;"stop";60200532;"Hirschstetten";"Wien";90001;48.2326610834301;16.4682391819813;""
214460638;"stop";60200533;"Fuchsienweg";"Wien";90001;48.25852227336;16.4926284419452;""
214460639;"stop";60200534;"Hütteldorfer Str./Hochsatzeng.";"Wien";90001;48.1980094601201;16.277401083023;""
214460640;"stop";60200535;"Hoefftgasse";"Wien";90001;48.1556702385175;16.4678529064092;""
214460641;"stop";60200536;"Hoferstiege";"Wien";90001;48.1390916350928;16.2717955956501;""
214460642;"stop";60200537;"Hofherr-Schrantz-Gasse";"Wien";90001;48.2830672335278;16.3719846992879;""
214460643;"stop";60200538;"Hofmannsthalgasse";"Wien";90001;48.1851640283369;16.3995629785104;""
214460644;"stop";60200539;"Hofwiesengasse";"Wien";90001;48.1701586437705;16.2872286522313;""
214460645;"stop";60200540;"Hohe Warte";"Wien";90001;48.2510458269241;16.3551143382522;""
214460646;"stop";60200541;"Hohe-Wand-Wiese";"Wien";90001;48.2295554257119;16.2017449697945;""
214460647;"stop";60200542;"Hohenbergstraße";"Wien";90001;48.1741485279114;16.3259190915183;""
214460648;"stop";60200543;"Hohenfelsplatz";"Wien";90001;48.1740287160922;16.3168371239958;""
214460649;"stop";60200544;"Hoher Markt";"Wien";90001;48.2112707108703;16.3720565645107;""
214460650;"stop";60200545;"Hollergasse";"Wien";90001;48.1863139604379;16.3245895848978;""
214460651;"stop";60200546;"Kollarzgasse";"Wien";90001;48.2854104961436;16.4255063239158;""
214460652;"stop";60200547;"Holubstraße";"Wien";90001;48.2318054007897;16.3945593623779;""
214460653;"stop";60200548;"Hopfengasse";"Wien";90001;48.2691967436725;16.3917386523857;""
214460654;"stop";60200549;"Horeischygasse";"Wien";90001;48.1834929872682;16.2767273465599;""
214460655;"stop";60200550;"Hosnedlgasse";"Wien";90001;48.2549815646021;16.4617982613942;""
214460656;"stop";60200551;"Hoßplatz";"Wien";90001;48.2549815646021;16.4080790074039;""
214460657;"stop";60200552;"Hubermanngasse";"Wien";90001;48.1408240679857;16.331821022935;""
214460658;"stop";60200553;"Hubert-Gsur-Gasse";"Wien";90001;48.1463267023166;16.3889808244635;""
214460659;"stop";60200554;"Hubertusdamm";"Wien";90001;48.2507646912122;16.3921878100278;""
214460660;"stop";60200555;"Huflattichweg";"Wien";90001;48.2470798760248;16.5310134540356;""
214460661;"stop";60200556;"Huglgasse";"Wien";90001;48.1981471792362;16.3250567088455;""
214460662;"stop";60200557;"Hugo-Wolf-Park";"Wien";90001;48.2388718334242;16.332440860481;""
214460663;"stop";60200558;"Unter St. Veit, Hummelgasse";"Wien";90001;48.1856791052805;16.2818657099851;""
214460664;"stop";60200559;"Husarenweg";"Wien";90001;48.2027096641226;16.464807617596;""
214460665;"stop";60200560;"Hütteldorf";"Wien";90001;48.1973867255822;16.2610697111577;""
214460666;"stop";60200561;"Pelargonienweg";"Wien";90001;48.2567459687048;16.4955389834657;""
214460667;"stop";60200562;"Hütteldorfer Friedhof";"Wien";90001;48.2043501433506;16.2444868110129;""
214460668;"stop";60200563;"Hüttenbrennergasse";"Wien";90001;48.1759756234659;16.3950085200199;""
214460669;"stop";60200564;"Hüttergasse";"Wien";90001;48.2132341617899;16.2270145787367;""
214460670;"stop";60200565;"Hämmerlegasse";"Wien";90001;48.1386720058735;16.3947390254347;""
214460671;"stop";60200566;"Hänflingweg";"Wien";90001;48.2182861101261;16.2575393320911;""
214460672;"stop";60200567;"Hänischgasse";"Wien";90001;48.2317156430402;16.5428891820917;""
214460673;"stop";60200568;"Häußlergasse";"Wien";90001;48.238435071221;16.4393583455969;""
214460674;"stop";60200569;"Höchstädtplatz";"Wien";90001;48.2392427792165;16.3769074670449;""
214460675;"stop";60200570;"Hödlgasse";"Wien";90001;48.1491796878861;16.2954751865395;""
214460676;"stop";60200571;"Hörtengasse";"Wien";90001;48.162459566539;16.4442361975897;""
214460677;"stop";60200572;"Senekowitschgasse";"Wien";90001;48.2541322365116;16.4592380628345;""
214460679;"stop";60200574;"Illgasse";"Wien";90001;48.2879329699249;16.4479192902546;""
214460680;"stop";60200575;"Liesing Industriegelände Süd";"Wien";90001;48.1284439818784;16.3020867870306;""
214460681;"stop";60200576;"Industriegelände Liesing West";"Wien";90001;48.1331026018401;16.2980264019464;""
214460682;"stop";60200577;"Innocentiagasse";"Wien";90001;48.1906080100597;16.2624351503896;""
214460683;"stop";60200578;"Innstraße";"Wien";90001;48.2305188580022;16.3867799520174;""
214460684;"stop";60200579;"Invalidensiedlung";"Wien";90001;48.2614228402004;16.5364392783517;""
214460685;"stop";60200580;"Inzersdorf Friedhof";"Wien";90001;48.1477951705788;16.3500029242855;""
214460686;"stop";60200581;"Inzersdorf, Großmarkt";"Wien";90001;48.1358124411584;16.3575038569079;""
214460687;"stop";60200582;"Blumental";"Wien";90001;48.1384981584778;16.3691011072259;""
214460690;"stop";60200585;"Inzersdorf Lokalbahn";"Wien";90001;48.1499528436356;16.3344081709532;""
214460691;"stop";60200586;"Inzersdorf, Zetschegasse";"Wien";90001;48.1388758262084;16.3302849037991;""
214460692;"stop";60200587;"Iselgasse";"Wien";90001;48.2811303740959;16.4563454876196;""
214460693;"stop";60200588;"Oleandergasse";"Wien";90001;48.2554361287698;16.4976410412306;""
214460694;"stop";60200589;"Jagdschloßgasse";"Wien";90001;48.1771377421712;16.2836264079419;""
214460695;"stop";60200590;"Jahngasse";"Wien";90001;48.1831935117862;16.3572074128642;""
214460696;"stop";60200591;"Jedlersdorf";"Wien";90001;48.2731789161832;16.3968859989637;""
214460697;"stop";60200592;"Obachgasse";"Wien";90001;48.2604599898689;16.4647896512903;""
214460698;"stop";60200593;"Trillergasse";"Wien";90001;48.2738485603583;16.4031831891054;""
214460699;"stop";60200594;"Jeneweingasse";"Wien";90001;48.2660992838397;16.385216883423;""
214460700;"stop";60200595;"Jenbachgasse";"Wien";90001;48.1668215202937;16.2662799398056;""
214460701;"stop";60200596;"Berresgasse";"Wien";90001;48.2405709824147;16.4875709268956;""
214460702;"stop";60200597;"Joachimsthalerplatz";"Wien";90001;48.2088462240027;16.3049254633284;""
214460703;"stop";60200598;"Jochbergengasse";"Wien";90001;48.279976592679;16.4007487546855;""
214460704;"stop";60200599;"Jochen-Rindt-Straße";"Wien";90001;48.1461588746971;16.3542878881908;""
214460705;"stop";60200600;"Johann-Friedl-Gasse";"Wien";90001;48.1370713886448;16.4072615404953;""
214460706;"stop";60200601;"Johannes-Krawarik-Gasse";"Wien";90001;48.2137908582598;16.308680421216;""
214460707;"stop";60200602;"Johann-Nepomuk-Berger-Platz";"Wien";90001;48.2131024692667;16.3254609507234;""
214460708;"stop";60200603;"Johann-Pölzer-Gasse";"Wien";90001;48.1486342764359;16.3953408966751;""
214460709;"stop";60200604;"Johann-Strauß-Gasse";"Wien";90001;48.189913320709;16.3661097173298;""
214460710;"stop";60200605;"Johanneskapelle";"Wien";90001;48.1323711605229;16.4183467511014;""
214460711;"stop";60200606;"Johnstraße";"Wien";90001;48.1976741424633;16.3196398676823;""
214460712;"stop";60200607;"Josef-Baumann-Gasse";"Wien";90001;48.2512671454397;16.4302943443801;""
214460713;"stop";60200608;"Josef-Enslein-Platz";"Wien";90001;48.1518347399555;16.371814019384;""
214460714;"stop";60200609;"Josef-Gall-Gasse";"Wien";90001;48.209911815085;16.3972812576887;""
214460715;"stop";60200610;"Josef-Meder-Gasse";"Wien";90001;48.1299789149318;16.2942444946002;""
214460716;"stop";60200611;"Josef-Melichar-Gasse";"Wien";90001;48.2460210407378;16.4010451987292;""
214460717;"stop";60200612;"Josef-Ressel-Straße";"Wien";90001;48.2112168346314;16.2335722803108;""
214460718;"stop";60200613;"Josef-Österreicher-Gasse";"Wien";90001;48.1473156753579;16.3017184777641;""
214460719;"stop";60200614;"Elisabethwiese";"Wien";90001;48.2810048343762;16.3342734236606;""
214460720;"stop";60200615;"Josefstädter Straße";"Wien";90001;48.2113844494108;16.3391602588062;""
214460721;"stop";60200616;"Inzersdorfer Str./Ettenreichg.";"Wien";90001;48.1707397723371;16.3756138930358;""
214460722;"stop";60200617;"Julius-Ficker-Straße";"Wien";90001;48.2670560482273;16.4482696332154;""
214460723;"stop";60200618;"Julius-Payer-Gasse";"Wien";90001;48.2339535559526;16.4202242300452;""
214460724;"stop";60200619;"Julius-Raab-Platz";"Wien";90001;48.2113305732915;16.382845331073;""
214460725;"stop";60200620;"Jungstraße";"Wien";90001;48.2209615254009;16.4059320338748;""
214460726;"stop";60200621;"Jura-Soyfer-Gasse";"Wien";90001;48.1493534991083;16.3928256138795;""
214460727;"stop";60200622;"Justgasse";"Wien";90001;48.2759530992036;16.4218771301679;""
214460728;"stop";60200623;"Jüptnergasse";"Wien";90001;48.2561538534382;16.4405261554663;""
214460729;"stop";60200624;"In der Au";"Wien";90001;48.2097920868556;16.4841213962046;""
214460730;"stop";60200625;"Jägerwaldsiedlung";"Wien";90001;48.2239958875887;16.2462385258169;""
214460732;"stop";60200627;"Kagran";"Wien";90001;48.2436460592695;16.433698959307;""
214460733;"stop";60200628;"Hagedornweg";"Wien";90001;48.232673050918;16.4925565767225;""
214460735;"stop";60200630;"Kagraner Anger";"Wien";90001;48.2395179953243;16.4487726897745;""
214460736;"stop";60200631;"Kagraner Brücke";"Wien";90001;48.2393624385757;16.4301685802404;""
214460737;"stop";60200632;"Kagraner Friedhof";"Wien";90001;48.2537075671759;16.4461226596863;""
214460738;"stop";60200633;"Kagraner Platz";"Wien";90001;48.2503041038334;16.4433019496942;""
214460739;"stop";60200634;"Kahlenberg";"Wien";90001;48.2767064073811;16.3360251384646;""
214460740;"stop";60200635;"Kahlenbergerdorf";"Wien";90001;48.2743388299932;16.3568480867505;""
214460741;"stop";60200636;"Korbweidenweg";"Wien";90001;48.2035179360017;16.470745481624;""
214460742;"stop";60200637;"Kaiser-Franz-Josef-Str.";"Wien";90001;48.1358963719512;16.266765030059;""
214460743;"stop";60200638;"Kaiserebersdorfer Friedhof";"Wien";90001;48.1586605298913;16.4539290195053;""
214460744;"stop";60200639;"Kaiserebersdorf, Zinnergasse";"Wien";90001;48.1600088006549;16.4707364984712;""
214460745;"stop";60200640;"Angelibad";"Wien";90001;48.2472054990957;16.4027699640747;""
214460746;"stop";60200641;"Kaisermühlen-VIC";"Wien";90001;48.2323379601984;16.4154990916507;""
214460747;"stop";60200642;"Kaisermühlenstraße";"Wien";90001;48.213252119835;16.4409483636498;""
214460748;"stop";60200643;"Kaiserstraße";"Wien";90001;48.1965005133816;16.3415946932262;""
214460749;"stop";60200644;"Burggasse/Kaiserstraße";"Wien";90001;48.2043202080689;16.3400316246318;""
214460750;"stop";60200645;"Neustiftgasse/Kaiserstr.";"Wien";90001;48.2060264912038;16.339681281671;""
214460751;"stop";60200646;"Westbahnstr./Kaiserstr.";"Wien";90001;48.201835518698;16.3405256980381;""
214460752;"stop";60200647;"Kalksburger Kirchenplatz";"Wien";90001;48.1376588869074;16.2453132610743;""
214460753;"stop";60200648;"Kammerergasse";"Wien";90001;48.244878431177;16.3181127316993;""
214460754;"stop";60200649;"Kanalstraße";"Wien";90001;48.2126116123324;16.4560310772702;""
214460755;"stop";60200650;"Wulzendorfstraße/Kapellenweg";"Wien";90001;48.2153112672416;16.4683559629683;""
214460756;"stop";60200651;"Kapellergasse";"Wien";90001;48.2488445527902;16.4835464744227;""
214460757;"stop";60200652;"Kappgasse";"Wien";90001;48.1863798411832;16.4224161193384;""
214460758;"stop";60200653;"Kardinal-Nagl-Platz";"Wien";90001;48.1973328347375;16.4005331590173;""
214460759;"stop";60200654;"Karl-Meißl-Straße";"Wien";90001;48.2283585901525;16.3734579363539;""
214460760;"stop";60200655;"Karl-Schwed-Gasse";"Wien";90001;48.1493534991083;16.2770148074508;""
214460762;"stop";60200657;"Karlsplatz";"Wien";90001;48.200955370905;16.3689483936276;""
214460763;"stop";60200658;"Arsenalsteg";"Wien";90001;48.1808335837714;16.3881813238606;""
214460764;"stop";60200659;"Karmeliterplatz";"Wien";90001;48.2157601982681;16.3803480145831;""
214460765;"stop";60200660;"Karthäuserstraße";"Wien";90001;48.250543370522;16.3238888989762;""
214460766;"stop";60200661;"Kaserngasse";"Wien";90001;48.1488320636756;16.2590305354628;""
214460767;"stop";60200662;"Haus des Meeres";"Wien";90001;48.1976442032801;16.3540453430641;""
214460768;"stop";60200663;"Kellerberggasse";"Wien";90001;48.125817700964;16.3049434296341;""
214460769;"stop";60200664;"Kellermanngasse";"Wien";90001;48.2053080631278;16.3515659928799;""
214460770;"stop";60200665;"Kempfengerngasse";"Wien";90001;48.2199560165968;16.2961489230026;""
214460771;"stop";60200666;"Keplerplatz";"Wien";90001;48.178132111491;16.3765391577784;""
214460772;"stop";60200667;"Dreherstraße/Hoefftgasse";"Wien";90001;48.1547952906497;16.4718683757292;""
214460773;"stop";60200668;"Kerbelgasse";"Wien";90001;48.2173523752379;16.2497509385778;""
214460774;"stop";60200669;"Familienplatz";"Wien";90001;48.2135274757381;16.3189301986078;""
214460775;"stop";60200670;"Kettenbrückengasse";"Wien";90001;48.1968178749179;16.3589950602796;""
214460776;"stop";60200671;"Ketzergasse/Lemböckgasse";"Wien";90001;48.1277784302414;16.3072341336086;""
214460777;"stop";60200672;"Keylwerthgasse";"Wien";90001;48.2508903052319;16.288432394712;""
214460778;"stop";60200673;"Khevenhüllerstraße";"Wien";90001;48.2434964975515;16.3070634537046;""
214460779;"stop";60200674;"Khleslplatz";"Wien";90001;48.1626153569892;16.3218587064341;""
214460780;"stop";60200675;"Kiefernplatz";"Wien";90001;48.2185973513045;16.4578187246856;""
214460781;"stop";60200676;"Kierischitzweg";"Wien";90001;48.199997369725;16.457171937681;""
214460782;"stop";60200677;"Kinskygasse/Rossakgasse";"Wien";90001;48.1463207084825;16.3311023707077;""
214460783;"stop";60200678;"Kirchengasse";"Wien";90001;48.1995243500356;16.3528954995004;""
214460784;"stop";60200679;"Kirchfeldgasse";"Wien";90001;48.1594635043024;16.3085097413121;""
214460785;"stop";60200680;"Kirchstetterngasse";"Wien";90001;48.206864644556;16.3320905175202;""
214460786;"stop";60200681;"Jungbauerweg";"Wien";90001;48.1549810684994;16.3461940674809;""
214460787;"stop";60200682;"Kirschenallee";"Wien";90001;48.2144852238683;16.5195329847046;""
214460788;"stop";60200683;"Campingplatz Kleehäufel";"Wien";90001;48.2081757283615;16.4456375694329;""
214460789;"stop";60200684;"Klebindergraben";"Wien";90001;48.1605600833829;16.4529947716098;""
214460790;"stop";60200685;"Klederinger Straße";"Wien";90001;48.1313938907004;16.4237186765004;""
214460791;"stop";60200686;"Kleiner Ring";"Wien";90001;48.1668874260908;16.2599917328168;""
214460792;"stop";60200687;"Kleingartenverein Hackenberg";"Wien";90001;48.2483480566698;16.3110070578019;""
214460793;"stop";60200688;"Kleistgasse";"Wien";90001;48.1935423697899;16.3906067751277;""
214460794;"stop";60200689;"Kliebergasse";"Wien";90001;48.1828041910438;16.3644658003599;""
214460795;"stop";60200690;"Klimtgasse";"Wien";90001;48.1727407213545;16.3011255896766;""
214460797;"stop";60200692;"Klosterneuburger Straße";"Wien";90001;48.2372444265517;16.3651575031286;""
214460798;"stop";60200693;"Lehenstraße";"Wien";90001;48.2309317520028;16.5227040376575;""
214460799;"stop";60200694;"Knotzenbachgasse";"Wien";90001;48.1455295162363;16.2931395668008;""
214460800;"stop";60200695;"Knödelhüttenstraße";"Wien";90001;48.2207819717058;16.2389801383212;""
214460801;"stop";60200696;"Kohlgasse";"Wien";90001;48.1878830969938;16.3518085380066;""
214460802;"stop";60200697;"Kolbegasse";"Wien";90001;48.1444745742692;16.3605760951796;""
214460803;"stop";60200698;"Kollburggasse";"Wien";90001;48.218351949764;16.300990842384;""
214460804;"stop";60200699;"Koloniestraße";"Wien";90001;48.2658242107634;16.3932657883687;""
214460805;"stop";60200700;"Inzersdorf, Slamastraße";"Wien";90001;48.1386780006008;16.3414599459336;""
214460806;"stop";60200701;"Konstanziagasse";"Wien";90001;48.2281192196819;16.457791775227;""
214460807;"stop";60200702;"Hauffgasse";"Wien";90001;48.1777008211424;16.4127771963398;""
214460808;"stop";60200703;"Dirmhirngasse";"Wien";90001;48.1359263472011;16.2826472442823;""
214460809;"stop";60200704;"Panikengasse";"Wien";90001;48.2080500094514;16.3243200903126;""
214460810;"stop";60200705;"Thaliastraße U/Koppstr.";"Wien";90001;48.2061701756097;16.3367348075391;""
214460811;"stop";60200706;"Korbergasse";"Wien";90001;48.1861522527952;16.3393219555574;""
214460812;"stop";60200707;"Korbgasse";"Wien";90001;48.136885545958;16.2750744464371;""
214460813;"stop";60200708;"Kornauthgasse";"Wien";90001;48.1609136202754;16.3668732853213;""
214460814;"stop";60200709;"Jakov-Lind-Straße";"Wien";90001;48.2243310329334;16.396418875016;""
214460815;"stop";60200710;"Krankenhaus Hietzing";"Wien";90001;48.169134163971;16.2790449999929;""
214460816;"stop";60200711;"KGV Alsrückenweg";"Wien";90001;48.2319609805159;16.3074587124296;""
214460817;"stop";60200712;"Mariahilfer Str./Geibelgasse";"Wien";90001;48.1917159003146;16.3317132251009;""
214460818;"stop";60200713;"Krapfenwaldgasse";"Wien";90001;48.2687423018575;16.3243560229239;""
214460819;"stop";60200714;"Kratzlgasse";"Wien";90001;48.2414145530258;16.330006426061;""
214460820;"stop";60200715;"Krausegasse";"Wien";90001;48.1745379143904;16.420403893102;""
214460821;"stop";60200716;"Kraygasse";"Wien";90001;48.2485813506279;16.4492937126393;""
214460822;"stop";60200717;"Kreilplatz";"Wien";90001;48.2544372785057;16.3667026054173;""
214460823;"stop";60200718;"Krenngasse";"Wien";90001;48.2294058227977;16.3208795427744;""
214460824;"stop";60200719;"Röntgengasse";"Wien";90001;48.2254741014423;16.2861057581261;""
214460825;"stop";60200720;"Podhagskygasse";"Wien";90001;48.2406786730545;16.4995454696329;""
214460826;"stop";60200721;"Kronawettergasse";"Wien";90001;48.1550290110611;16.3961044646665;""
214460827;"stop";60200722;"Kronfußgasse";"Wien";90001;48.139457309187;16.3593993021574;""
214460828;"stop";60200723;"Krottenbachstraße";"Wien";90001;48.2400504744596;16.3409479062216;""
214460829;"stop";60200724;"Inzersdorf, Kolpingstraße";"Wien";90001;48.1412017186058;16.3422953791478;""
214460830;"stop";60200725;"Kugelfanggasse";"Wien";90001;48.2462423809999;16.3983861854882;""
214460831;"stop";60200726;"Kugelmanngasse";"Wien";90001;48.1411058076004;16.3038474849875;""
214460832;"stop";60200727;"Kundratstraße";"Wien";90001;48.1758138832075;16.3554556980601;""
214460833;"stop";60200728;"Kunerolgasse";"Wien";90001;48.1538544054034;16.3017184777641;""
214460834;"stop";60200729;"Kurpark Nordeingang";"Wien";90001;48.1522183027132;16.4014584237599;""
214460835;"stop";60200730;"Kurzbauergasse";"Wien";90001;48.2118633457572;16.396023616291;""
214460837;"stop";60200732;"Kutschkergasse";"Wien";90001;48.2261862621088;16.344828628249;""
214460838;"stop";60200733;"Pensionisten-Wohnhaus Prater";"Wien";90001;48.2137130408375;16.4182389532673;""
214460839;"stop";60200734;"Kärntner Straße";"Wien";90001;48.2035478717523;16.3705024790691;""
214460840;"stop";60200735;"Kästenbaumgasse";"Wien";90001;48.1383123209556;16.4041174370009;""
214460841;"stop";60200736;"Kölblgasse";"Wien";90001;48.1911290208928;16.3857109568293;""
214460842;"stop";60200737;"Stiegengasse";"Wien";90001;48.1985303956979;16.3572613117812;""
214460843;"stop";60200738;"Laaer-Berg-Straße";"Wien";90001;48.1449361140477;16.3961314141251;""
214460844;"stop";60200740;"Lainzer Tor";"Wien";90001;48.1669054003844;16.2574584837155;""
214460845;"stop";60200741;"Lamezanstraße";"Wien";90001;48.1405123542699;16.3369504032073;""
214460846;"stop";60200742;"Landesgerichtsstraße";"Wien";90001;48.2144971956066;16.3569379182789;""
214460847;"stop";60200743;"Wien Mitte-Landstraße";"Wien";90001;48.2060444517766;16.3845880627241;""
214460848;"stop";60200744;"Lafitegasse";"Wien";90001;48.1762092473829;16.2681753850551;""
214460849;"stop";60200745;"Landwehrstraße";"Wien";90001;48.1687866749465;16.4704220881218;""
214460850;"stop";60200746;"Industriestraße/Lange Allee";"Wien";90001;48.2269403037786;16.4403554755623;""
214460851;"stop";60200747;"Lange Gasse";"Wien";90001;48.2149760628418;16.3509551384867;""
214460852;"stop";60200748;"Langfeldgasse";"Wien";90001;48.2698664400343;16.4437511073363;""
214460853;"stop";60200749;"Langobardenstraße";"Wien";90001;48.2244926200834;16.454737503261;""
214460854;"stop";60200750;"Langsulzgasse";"Wien";90001;48.1580852569141;16.4001289171394;""
214460855;"stop";60200751;"Lannesstraße";"Wien";90001;48.2146887430381;16.5104150845708;""
214460856;"stop";60200752;"Lassallestraße";"Wien";90001;48.2235889224342;16.4024825031838;""
214460857;"stop";60200753;"Laudongasse";"Wien";90001;48.2132461338207;16.3490057943202;""
214460858;"stop";60200754;"Laurentiusplatz";"Wien";90001;48.2019313161847;16.3083121119496;""
214460859;"stop";60200755;"Laurenzgasse";"Wien";90001;48.1851161139395;16.3622469616081;""
214460860;"stop";60200756;"St.-Veit-Gasse";"Wien";90001;48.1894162527214;16.2862764380301;""
214460861;"stop";60200757;"Pulkaugasse";"Wien";90001;48.2828580084236;16.4529947716098;""
214460862;"stop";60200758;"Lavantgasse/Schule";"Wien";90001;48.2821765264285;16.4500123648666;""
214460863;"stop";60200759;"Schönbrunner Allee";"Wien";90001;48.1359743075646;16.3251555235268;""
214460864;"stop";60200760;"Laxenburger Straße/Troststraße";"Wien";90001;48.1690922257654;16.3705743442919;""
214460865;"stop";60200761;"Laxenburger Straße/Raxstraße";"Wien";90001;48.1649881069011;16.3683105897759;""
214460866;"stop";60200762;"Lazarettgasse";"Wien";90001;48.2189864001165;16.3517276896311;""
214460867;"stop";60200763;"St. Marx/Leberstraße";"Wien";90001;48.1876016142012;16.3996078942746;""
214460868;"stop";60200764;"Lebingergasse";"Wien";90001;48.2033443083033;16.2904446209484;""
214460869;"stop";60200765;"Lechnerstraße";"Wien";90001;48.1966082967653;16.4050696512021;""
214460870;"stop";60200766;"Rosenbergstraße";"Wien";90001;48.2177354480214;16.528444272323;""
214460871;"stop";60200767;"Himmelteich";"Wien";90001;48.2252945635758;16.5205301146699;""
214460872;"stop";60200768;"Leibenfrostgasse";"Wien";90001;48.1899612306217;16.3629206980712;""
214460873;"stop";60200769;"Leopoldau";"Wien";90001;48.2777287364278;16.4498416849626;""
214460874;"stop";60200770;"Wehrbrücklstraße/Gernotgasse";"Wien";90001;48.2198662380646;16.5293156381486;""
214460875;"stop";60200771;"Leopoldauer Platz";"Wien";90001;48.263402307825;16.4409303973441;""
214460876;"stop";60200772;"Resedaweg";"Wien";90001;48.2338757691778;16.4951347415879;""
214460877;"stop";60200773;"Leopoldauer Straße";"Wien";90001;48.2627863487734;16.4358638991417;""
214460878;"stop";60200774;"Leopoldigasse";"Wien";90001;48.1417112428172;16.2917381949575;""
214460879;"stop";60200775;"Leopoldsberg";"Wien";90001;48.2789961569016;16.3444423526768;""
214460880;"stop";60200776;"Leopoldsdorfer Straße";"Wien";90001;48.1379646231396;16.3996258605803;""
214460881;"stop";60200777;"Auerspergstraße";"Wien";90001;48.206864644556;16.3557341757982;""
214460882;"stop";60200778;"Langobardenstraße/Kapellenweg";"Wien";90001;48.2187948687632;16.4703053071348;""
214460884;"stop";60200780;"Leyserstraße";"Wien";90001;48.1981232281122;16.3023832310744;""
214460885;"stop";60200781;"Leystraße";"Wien";90001;48.2437836556637;16.3772039110887;""
214460886;"stop";60200782;"Lichtensterngasse";"Wien";90001;48.1601226530081;16.3306981288298;""
214460887;"stop";60200783;"Thaliastraße/Haberlgasse";"Wien";90001;48.2098758966456;16.330006426061;""
214460888;"stop";60200784;"Liebknechtgasse";"Wien";90001;48.2226253596834;16.3067939591194;""
214460889;"stop";60200785;"Tillmanngasse";"Wien";90001;48.2587435595156;16.4585643263714;""
214460890;"stop";60200786;"Liechtenwerder Platz";"Wien";90001;48.2327508395212;16.356201299746;""
214460891;"stop";60200787;"Lieglerstraße";"Wien";90001;48.2143295910162;16.5421256141002;""
214460892;"stop";60200788;"Liesing";"Wien";90001;48.1348052609429;16.2840037003613;""
214460893;"stop";60200789;"Liesing Bad";"Wien";90001;48.1326349602319;16.2814345186487;""
214460894;"stop";60200790;"Liesing Feuerwache";"Wien";90001;48.1341817585277;16.2894205415245;""
214460895;"stop";60200791;"Liesing Friedhof";"Wien";90001;48.1335762345123;16.2942534777531;""
214460896;"stop";60200792;"Moeringgasse";"Wien";90001;48.2040567768354;16.3342195247436;""
214460897;"stop";60200793;"Liesing Schulzentrum";"Wien";90001;48.1406202553857;16.2803924729191;""
214460898;"stop";60200794;"Sebastianbrücke";"Wien";90001;48.1345114963251;16.4145289111438;""
214460900;"stop";60200796;"Liesinger-Flur-Gasse";"Wien";90001;48.1366577378758;16.3058327617654;""
214460901;"stop";60200797;"Jedleseer Friedhof";"Wien";90001;48.2702192229813;16.3836268653701;""
214460902;"stop";60200798;"Lilienthalgasse";"Wien";90001;48.1786173087962;16.391046949617;""
214460903;"stop";60200799;"Lindauergasse";"Wien";90001;48.1447922579385;16.25895867024;""
214460904;"stop";60200800;"Lindenbauergasse";"Wien";90001;48.1701286885113;16.4322886043109;""
214460905;"stop";60200801;"Linienamt";"Wien";90001;48.1566889946316;16.3191817268874;""
214460906;"stop";60200803;"Linnéplatz";"Wien";90001;48.2370230473521;16.3377768532687;""
214460907;"stop";60200804;"Lisztstraße";"Wien";90001;48.1990573136522;16.3786142660847;""
214460908;"stop";60200805;"Litfaßstraße";"Wien";90001;48.1839721444001;16.4055098256913;""
214460909;"stop";60200806;"Raffineriestraße/Ostbahnbrücke";"Wien";90001;48.2054876710915;16.4491320158881;""
214460910;"stop";60200807;"Löwenthalgasse";"Wien";90001;48.1359083620533;16.2784071961412;""
214460911;"stop";60200808;"Lobaugasse";"Wien";90001;48.2053858933227;16.4869331230439;""
214460912;"stop";60200809;"Lobgrundstraße";"Wien";90001;48.1771796737971;16.4919097897179;""
214460913;"stop";60200810;"Lohnergasse";"Wien";90001;48.2823080412058;16.3689394104748;""
214460914;"stop";60200811;"Lohwaggasse";"Wien";90001;48.2172805487719;16.4926194587924;""
214460915;"stop";60200812;"Lokomotivgasse";"Wien";90001;48.2712476610635;16.3955475091904;""
214460916;"stop";60200813;"Lorenz-Böhler-UKH";"Wien";90001;48.2361614543216;16.3833034718678;""
214460917;"stop";60200814;"Lorystraße";"Wien";90001;48.1722914132532;16.4134419496501;""
214460918;"stop";60200815;"Anton-Stilling-Platz";"Wien";90001;48.16665975116;16.4195774430406;""
214460919;"stop";60200816;"Margeritenweg";"Wien";90001;48.2319011422156;16.4942543926095;""
214460920;"stop";60200817;"Lukschgasse";"Wien";90001;48.2025420209507;16.4056715224424;""
214460921;"stop";60200818;"Lusthaus/Aspernallee";"Wien";90001;48.1928237666171;16.4393493624441;""
214460922;"stop";60200819;"Linzer Straße/Lützowgasse";"Wien";90001;48.1943447980897;16.2956009506793;""
214460923;"stop";60200820;"Längenfeldgasse";"Wien";90001;48.1851161139395;16.3353603851544;""
214460924;"stop";60200821;"Ludwig-Koeßler-Platz";"Wien";90001;48.1957699755818;16.4089683395351;""
214460925;"stop";60200822;"Maculangasse";"Wien";90001;48.2615603887673;16.456040060423;""
214460926;"stop";60200823;"Maireckergasse";"Wien";90001;48.1358364213989;16.2627585438918;""
214460927;"stop";60200824;"Leopoldsgasse";"Wien";90001;48.2202373216449;16.3761708485119;""
214460928;"stop";60200825;"Mannswörther Straße";"Wien";90001;48.1580433096739;16.4921613179975;""
214460929;"stop";60200826;"Marenabrücke";"Wien";90001;48.1414654729466;16.2928790553684;""
214460930;"stop";60200827;"Margaretengürtel";"Wien";90001;48.1882903459574;16.3425019916631;""
214460931;"stop";60200828;"Ostbahnbegleitstraße";"Wien";90001;48.2333910950708;16.4879841519263;""
214460932;"stop";60200829;"Margaretenplatz/Schönbr. Str.";"Wien";90001;48.1920692224394;16.3564528280255;""
214460933;"stop";60200830;"Margaretenplatz";"Wien";90001;48.1911110550902;16.3579889471614;""
214460934;"stop";60200831;"Margetinstraße";"Wien";90001;48.1758618063002;16.4655083035176;""
214460935;"stop";60200832;"Mariabrunn Mauerbachstraße";"Wien";90001;48.2083134201469;16.2268438988328;""
214460936;"stop";60200833;"Mariahilfer Gürtel";"Wien";90001;48.1929854532096;16.3388368653039;""
214460937;"stop";60200834;"Mariahilfer Str./Arnsteingasse";"Wien";90001;48.1915362440626;16.3304016847861;""
214460938;"stop";60200835;"Museumsquartier";"Wien";90001;48.2025360336844;16.3614115283939;""
214460939;"stop";60200836;"Aquäduktsteg";"Wien";90001;48.1380005919883;16.2751283453542;""
214460940;"stop";60200837;"Alte Brauerei Liesing";"Wien";90001;48.137227256186;16.2773561672588;""
214460941;"stop";60200838;"Marienbrücke";"Wien";90001;48.2132581058487;16.3774554393682;""
214460942;"stop";60200839;"Markomannenstraße";"Wien";90001;48.2502682137336;16.4547914021781;""
214460943;"stop";60200840;"Maroltingergasse";"Wien";90001;48.213461629896;16.3065244645342;""
214460944;"stop";60200841;"Marschallplatz";"Wien";90001;48.1655513192963;16.3035240914852;""
214460945;"stop";60200842;"Linienamt Neuwaldegg";"Wien";90001;48.2401162861028;16.2775358303156;""
214460946;"stop";60200843;"Martinstraße";"Wien";90001;48.2266231288743;16.3422504633836;""
214460947;"stop";60200844;"Marx-Meidlinger-Straße";"Wien";90001;48.1804562248006;16.3442357401615;""
214460948;"stop";60200845;"Marxergasse";"Wien";90001;48.2074154235762;16.3865823226549;""
214460949;"stop";60200846;"Matschgasse";"Wien";90001;48.2086606412663;16.2907769976035;""
214460950;"stop";60200847;"Marderweg";"Wien";90001;48.2051583893435;16.4746082373458;""
214460951;"stop";60200848;"Matthäus-Jiszda-Straße";"Wien";90001;48.2538092488873;16.3948468232688;""
214460952;"stop";60200849;"Matzleinsdorfer Platz";"Wien";90001;48.1805999809266;16.3591477738779;""
214460953;"stop";60200850;"Mehlführergasse";"Wien";90001;48.1382463784473;16.2819735078192;""
214460954;"stop";60200852;"Maurer Berg";"Wien";90001;48.1445225266471;16.2622734536384;""
214460955;"stop";60200853;"Maurer Friedhof";"Wien";90001;48.1544716760147;16.2751642779655;""
214460956;"stop";60200854;"Maurer Hauptplatz";"Wien";90001;48.1505521811634;16.2688401383653;""
214460957;"stop";60200855;"Maurer Lange Gasse";"Wien";90001;48.1477112592385;16.2681843682079;""
214460958;"stop";60200856;"Max-Fleischer-Gasse";"Wien";90001;48.1508878071215;16.3895377799396;""
214460959;"stop";60200857;"Max-Hegele-Weg";"Wien";90001;48.1575459326396;16.3289553971786;""
214460960;"stop";60200858;"Max-Mauermann-Gasse";"Wien";90001;48.1629988391584;16.4093007161903;""
214460961;"stop";60200859;"Mayerhofgasse";"Wien";90001;48.1925962068447;16.3669721000026;""
214460962;"stop";60200860;"Mayerweckstraße";"Wien";90001;48.2939278282803;16.3814439592297;""
214460963;"stop";60200861;"Mayssengasse";"Wien";90001;48.2159996265393;16.3254609507234;""
214460964;"stop";60200862;"Mayredergasse";"Wien";90001;48.2381718154892;16.5044772205427;""
214460965;"stop";60200863;"Meidling Hauptstraße";"Wien";90001;48.183666682246;16.3289374308729;""
214460966;"stop";60200864;"Meidlinger Hauptstr./Pohlgasse";"Wien";90001;48.1780961707671;16.3299435439911;""
214460967;"stop";60200865;"Dörfelstraße";"Wien";90001;48.175514362863;16.3357915764908;""
214460968;"stop";60200867;"Meischlgasse";"Wien";90001;48.1412137074689;16.323673303308;""
214460969;"stop";60200868;"Memlinggasse";"Wien";90001;48.2287355963735;16.5218775875961;""
214460970;"stop";60200869;"Mergenthalerplatz";"Wien";90001;48.2434007778226;16.4467335140795;""
214460971;"stop";60200870;"Merkurweg";"Wien";90001;48.2076369308599;16.2498767027176;""
214460973;"stop";60200872;"Meyerbeergasse";"Wien";90001;48.2724973050638;16.3780034116915;""
214460974;"stop";60200873;"Michaelerplatz";"Wien";90001;48.2083074335552;16.366495992902;""
214460975;"stop";60200874;"Michelbeuern-AKH";"Wien";90001;48.220985465846;16.3439392961177;""
214460976;"stop";60200875;"Fabergasse";"Wien";90001;48.1367716420432;16.2770687063679;""
214460978;"stop";60200877;"Minciostraße";"Wien";90001;48.2029311917583;16.313154031331;""
214460979;"stop";60200878;"Mitterberg";"Wien";90001;48.2314224332946;16.2819555415135;""
214460980;"stop";60200879;"Mitterfeldgasse";"Wien";90001;48.1653116552032;16.415139765537;""
214460981;"stop";60200880;"Mittleres Hausfeld";"Wien";90001;48.227359211017;16.4846424190694;""
214460982;"stop";60200881;"Modecenterstraße";"Wien";90001;48.1885478693672;16.4182928521843;""
214460984;"stop";60200883;"Mauthausgasse";"Wien";90001;48.1878711190342;16.3454125331837;""
214460985;"stop";60200884;"Mendelssohngasse";"Wien";90001;48.2254022863713;16.4245271602561;""
214460986;"stop";60200885;"Molitorgasse";"Wien";90001;48.1818099123446;16.4080610410982;""
214460987;"stop";60200886;"Mommsengasse";"Wien";90001;48.188727536096;16.3786412155433;""
214460988;"stop";60200887;"Mondweg";"Wien";90001;48.2079302768693;16.2438490071611;""
214460989;"stop";60200888;"Montecuccoliplatz";"Wien";90001;48.1752388026008;16.2977119915969;""
214460990;"stop";60200889;"Montleartstraße";"Wien";90001;48.2023624026577;16.3027515403409;""
214460991;"stop";60200890;"Moosgasse";"Wien";90001;48.2287834699806;16.2828448736448;""
214460992;"stop";60200891;"Mooslackengasse";"Wien";90001;48.2489223168062;16.36841838761;""
214460993;"stop";60200892;"Mooswiesengasse";"Wien";90001;48.2050326630267;16.2030205774979;""
214460994;"stop";60200893;"Moritz-Dreger-Gasse";"Wien";90001;48.2733642650029;16.4422060050476;""
214460995;"stop";60200894;"Moschingergasse";"Wien";90001;48.2197106215691;16.2405791395269;""
214460996;"stop";60200895;"Murlingengasse";"Wien";90001;48.1762691507799;16.3359532732419;""
214460997;"stop";60200896;"Murraygasse";"Wien";90001;48.2365623362171;16.4750573949878;""
214460998;"stop";60200897;"Muthgasse";"Wien";90001;48.2450698649253;16.3661725993997;""
214460999;"stop";60200898;"Mühlbreiten";"Wien";90001;48.1490538242197;16.3099650120723;""
214461000;"stop";60200899;"Mühlfeldgasse";"Wien";90001;48.2208238676243;16.3898971060533;""
214461001;"stop";60200900;"Mühlhäufel";"Wien";90001;48.2032185775336;16.523018448007;""
214461003;"stop";60200902;"Mühlsangergasse";"Wien";90001;48.1599728472277;16.4657777981029;""
214461004;"stop";60200903;"Mühlwasser";"Wien";90001;48.2042064538388;16.4759107945077;""
214461005;"stop";60200904;"Mühlwasserstraße";"Wien";90001;48.2142457885152;16.4452872264721;""
214461006;"stop";60200905;"Hauptbahnhof Ost";"Wien";90001;48.1843554668806;16.3804917450286;""
214461007;"stop";60200906;"Pensionistenwohnhs. Hetzendorf";"Wien";90001;48.1667196657134;16.2999398135016;""
214461008;"stop";60200907;"Kaiserebersdorf Münnichplatz";"Wien";90001;48.1587983547508;16.4738626356599;""
214461009;"stop";60200908;"Männertreugasse";"Wien";90001;48.159996816182;16.4051954153418;""
214461010;"stop";60200909;"Reinlgasse/Märzstraße";"Wien";90001;48.1966442245095;16.3119413056974;""
214461011;"stop";60200911;"Johnstraße/Märzstraße";"Wien";90001;48.1962250659263;16.3184001925902;""
214461012;"stop";60200912;"Naufahrtbrücke";"Wien";90001;48.1994584861882;16.4698202168814;""
214461013;"stop";60200913;"Nauheimergasse";"Wien";90001;48.1575639102067;16.3315605115026;""
214461014;"stop";60200914;"Neilreichgasse";"Wien";90001;48.1761493439159;16.365588694465;""
214461016;"stop";60200916;"Nestroyplatz";"Wien";90001;48.2148144456506;16.384650944794;""
214461017;"stop";60200917;"Neue Donau Mitte";"Wien";90001;48.2199440461349;16.4282911012966;""
214461018;"stop";60200918;"Neu Erlaa";"Wien";90001;48.1406262498855;16.3280121661303;""
214461019;"stop";60200920;"Burggasse/Neubaugasse";"Wien";90001;48.204260337453;16.3489518954031;""
214461020;"stop";60200921;"Neustiftgasse/Neubaugasse";"Wien";90001;48.2054517495491;16.3489788448616;""
214461021;"stop";60200922;"Neubreitenlee";"Wien";90001;48.239721414974;16.4906701146258;""
214461022;"stop";60200923;"Erlaaer Spitz";"Wien";90001;48.1377847785176;16.3241314441029;""
214461023;"stop";60200924;"Neueßling";"Wien";90001;48.2491675717744;16.5324687247959;""
214461024;"stop";60200925;"Neugebauerweg";"Wien";90001;48.2539169116554;16.3513593803646;""
214461026;"stop";60200927;"Neu-Kagran";"Wien";90001;48.2370409970526;16.4477575935034;""
214461027;"stop";60200928;"Neulandschule";"Wien";90001;48.1589062174261;16.387139278131;""
214461028;"stop";60200929;"Ungargasse/Neulinggasse";"Wien";90001;48.1990453383044;16.3873818232578;""
214461029;"stop";60200930;"Neusteinhof";"Wien";90001;48.1574081044154;16.333231377931;""
214461030;"stop";60200931;"Neustift am Walde";"Wien";90001;48.2509860109446;16.3018891576681;""
214461031;"stop";60200932;"Neustifter Friedhof 1.Tor";"Wien";90001;48.2472294272647;16.3053386883591;""
214461032;"stop";60200933;"Neustifter Friedhof 2.Tor";"Wien";90001;48.247283265604;16.3016735619999;""
214461033;"stop";60200934;"Neustifter Friedhof 3.Tor";"Wien";90001;48.2468226468692;16.29838572806;""
214461034;"stop";60200935;"Neuwaldegg";"Wien";90001;48.2335466699759;16.2911003911058;""
214461035;"stop";60200936;"Höhenstraße/Marswiese";"Wien";90001;48.2403974803515;16.2799073826657;""
214461036;"stop";60200937;"Niederhofstraße";"Wien";90001;48.1810611957759;16.3311922022361;""
214461037;"stop";60200939;"Niklas-Eslarn-Straße";"Wien";90001;48.2246841301192;16.5349570581329;""
214461038;"stop";60200940;"Nikolaus-Pytty-Gasse";"Wien";90001;48.2226253596834;16.241764915702;""
214461039;"stop";60200941;"Nordbahnstraße";"Wien";90001;48.2235709680147;16.3892413358959;""
214461040;"stop";60200943;"Nordbrücke";"Wien";90001;48.2611417615433;16.3953768292864;""
214461041;"stop";60200944;"Nordwestbahnstraße";"Wien";90001;48.2280234711801;16.3809678521291;""
214461043;"stop";60200947;"Nowakgasse";"Wien";90001;48.1266151931568;16.3141421781435;""
214461044;"stop";60200948;"Nußdorf";"Wien";90001;48.2602147890611;16.3676548196185;""
214461045;"stop";60200950;"Nußdorfer Straße";"Wien";90001;48.2314822721546;16.3528865163476;""
214461046;"stop";60200952;"Nästlbergergasse";"Wien";90001;48.1601765829819;16.2605846209043;""
214461047;"stop";60200953;"Küniglberg/ORF-Zentrum";"Wien";90001;48.175514362863;16.2916124308178;""
214461048;"stop";60200954;"Finsterbuschstraße Mitte";"Wien";90001;48.1696134553138;16.5040460292064;""
214461049;"stop";60200955;"Lieblgasse";"Wien";90001;48.2576490808042;16.4617982613942;""
214461050;"stop";60200956;"Ober St. Veit";"Wien";90001;48.1922907960883;16.2757212334417;""
214461051;"stop";60200957;"Oriongasse";"Wien";90001;48.175915719726;16.4396547896407;""
214461052;"stop";60200958;"Aspernstraße/Oberdorfstr.";"Wien";90001;48.2198482823392;16.4811928883784;""
214461053;"stop";60200959;"Oberdöbling";"Wien";90001;48.2443998436714;16.3442716727729;""
214461054;"stop";60200960;"Grohnergasse";"Wien";90001;48.157168402274;16.3432655596546;""
214461055;"stop";60200961;"Obere Augartenstraße";"Wien";90001;48.2227570277131;16.3753084658392;""
214461056;"stop";60200962;"Obere Donaustraße";"Wien";90001;48.2196747100029;16.3713379122834;""
214461057;"stop";60200963;"Oberer Reisenbergweg";"Wien";90001;48.2594253540815;16.3357376775737;""
214461058;"stop";60200964;"Tierquartier";"Wien";90001;48.2517755762396;16.4732248318082;""
214461059;"stop";60200965;"Ziegelhofstraße/Oberfeldgasse";"Wien";90001;48.2399308167098;16.4780398017311;""
214461060;"stop";60200966;"Oberfeldgasse/Spargelfeldstr.";"Wien";90001;48.2412590020443;16.4734853432406;""
214461061;"stop";60200967;"Orchisgasse";"Wien";90001;48.2128749995651;16.4670983215705;""
214461062;"stop";60200968;"Obergfellplatz";"Wien";90001;48.2666015873765;16.3894748978698;""
214461063;"stop";60200970;"Oberlaaer Platz";"Wien";90001;48.1374970258121;16.4039108244855;""
214461064;"stop";60200971;"Oberlaaer Straße";"Wien";90001;48.1480109419667;16.36117796642;""
214461065;"stop";60200972;"Obersteinergasse";"Wien";90001;48.2405889308704;16.3450442239172;""
214461066;"stop";60200973;"Oberwiedenstraße";"Wien";90001;48.2230083930111;16.2906691997694;""
214461067;"stop";60200974;"Sturgasse";"Wien";90001;48.2162869389869;16.4145828100609;""
214461068;"stop";60200975;"Oper/Karlsplatz U";"Wien";90001;48.2022965424591;16.3695772143265;""
214461069;"stop";60200976;"Orthopädisches Krankenhaus";"Wien";90001;48.2290048848309;16.323448724487;""
214461070;"stop";60200977;"Frauengasse";"Wien";90001;48.2137729004036;16.3290362455542;""
214461071;"stop";60200978;"Oskar-Simony-Straße";"Wien";90001;48.2110611918451;16.2359797652722;""
214461072;"stop";60200979;"Wagramer Straße/Ostbahn";"Wien";90001;48.2753073976397;16.4764857162896;""
214461073;"stop";60200980;"Oswald-Redlich-Straße";"Wien";90001;48.275008458967;16.4538391879769;""
214461074;"stop";60200981;"Ottakring";"Wien";90001;48.2120249722633;16.3116718111122;""
214461076;"stop";60200983;"Ottakringer Bad";"Wien";90001;48.2125457653126;16.290579368241;""
214461077;"stop";60200985;"Otto-Hötzl-Weg";"Wien";90001;48.2217994343173;16.2912710710098;""
214461078;"stop";60200986;"Otto-Probst-Platz";"Wien";90001;48.1538304335794;16.3490237606259;""
214461079;"stop";60200987;"Otto-Probst-Straße";"Wien";90001;48.1557781077695;16.3563360470386;""
214461080;"stop";60200988;"Palffygasse";"Wien";90001;48.2176277090908;16.3368336222203;""
214461081;"stop";60200990;"Panozzalacke";"Wien";90001;48.1809473899;16.4858820941615;""
214461082;"stop";60200991;"Pantucekgasse";"Wien";90001;48.1602484895254;16.4574414322662;""
214461083;"stop";60200992;"Paradisgasse";"Wien";90001;48.2486890244035;16.3419719856455;""
214461084;"stop";60200993;"Kundmanngasse";"Wien";90001;48.2025480082163;16.3938856259148;""
214461085;"stop";60200994;"Parlament";"Wien";90001;48.2086786009154;16.3600730386205;""
214461086;"stop";60200995;"Patrizigasse";"Wien";90001;48.2573500388293;16.4042611674464;""
214461087;"stop";60200996;"Paulanergasse";"Wien";90001;48.1960334494318;16.3671517630594;""
214461088;"stop";60200997;"Paulinensteig";"Wien";90001;48.2184058184956;16.2994906558595;""
214461089;"stop";60200998;"Pellmanngasse";"Wien";90001;48.1307403686016;16.2884144284063;""
214461090;"stop";60200999;"Marco-Polo-Promenade";"Wien";90001;48.277328177192;16.4230449400373;""
214461091;"stop";60201000;"Pensionistenwhs. Atzgersdorf";"Wien";90001;48.1502405265225;16.2897169855683;""
214461092;"stop";60201001;"Pensionistenwohnhaus Rosenberg";"Wien";90001;48.1594515197021;16.2867705114364;""
214461093;"stop";60201002;"Pensionsversicherungsanstalt";"Wien";90001;48.2291604730716;16.3977124490251;""
214461094;"stop";60201003;"Penzing";"Wien";90001;48.1926560910933;16.3053297052063;""
214461095;"stop";60201004;"Pfalzgasse";"Wien";90001;48.2404573087156;16.4915594467571;""
214461096;"stop";60201005;"Penzinger Straße";"Wien";90001;48.1903325309267;16.3152381227901;""
214461097;"stop";60201006;"Per-Albin-Hansson-Siedlung Ost";"Wien";90001;48.1454695769327;16.3922506920977;""
214461098;"stop";60201007;"Perfektastraße";"Wien";90001;48.1368076117278;16.3133965764577;""
214461099;"stop";60201008;"Perntergasse";"Wien";90001;48.2491496263288;16.3550245067238;""
214461100;"stop";60201009;"Perspektivstraße";"Wien";90001;48.217891070521;16.4009104514366;""
214461101;"stop";60201010;"Peter-Jordan-Straße";"Wien";90001;48.2386504612667;16.3259640072825;""
214461102;"stop";60201011;"Pfarrer-Matz-Gasse";"Wien";90001;48.3021509356098;16.4064261072811;""
214461103;"stop";60201012;"Pfarrgasse";"Wien";90001;48.1496351919079;16.347092382765;""
214461104;"stop";60201013;"Pfenninggeldgasse";"Wien";90001;48.2074273969674;16.3132438628594;""
214461105;"stop";60201014;"Seckendorfstraße";"Wien";90001;48.1968717663043;16.2870579723273;""
214461106;"stop";60201015;"Meidling";"Wien";90001;48.1743402262398;16.3319917028389;""
214461107;"stop";60201017;"Piaristengasse";"Wien";90001;48.2063497805503;16.3514042961288;""
214461108;"stop";60201018;"Pilgramgasse";"Wien";90001;48.1926261489778;16.3544765344005;""
214461109;"stop";60201021;"Plachygasse";"Wien";90001;48.2267069111155;16.2808416305612;""
214461110;"stop";60201022;"Plankengasse";"Wien";90001;48.2063198464373;16.3693616186583;""
214461111;"stop";60201024;"Plattensteinergasse";"Wien";90001;48.2111629583358;16.4787045550413;""
214461112;"stop";60201025;"Plößlgasse";"Wien";90001;48.1945364208995;16.3771320458659;""
214461113;"stop";60201026;"Podlahagasse";"Wien";90001;48.2109354800184;16.5333221243158;""
214461114;"stop";60201027;"Pogrelzstraße";"Wien";90001;48.2432571978933;16.4562017571741;""
214461115;"stop";60201028;"Pohlgasse";"Wien";90001;48.1786772093797;16.324014663116;""
214461116;"stop";60201029;"Veletaweg";"Wien";90001;48.2279755968621;16.2809584115481;""
214461117;"stop";60201030;"Pokornygasse";"Wien";90001;48.2411513126262;16.3554916306715;""
214461118;"stop";60201031;"Polgarstraße";"Wien";90001;48.2312489002048;16.4496979545171;""
214461119;"stop";60201032;"Alte Polsterermühle";"Wien";90001;48.1311660582524;16.2418457640775;""
214461120;"stop";60201034;"Portnergasse";"Wien";90001;48.2444058260429;16.4437870399476;""
214461121;"stop";60201035;"Hütteldorfer Straße";"Wien";90001;48.1991231780155;16.3122108002826;""
214461122;"stop";60201036;"Possingergasse/Gablenzg.";"Wien";90001;48.2066251735693;16.3165316967992;""
214461123;"stop";60201037;"Possingergasse";"Wien";90001;48.2090258195589;16.3180498496294;""
214461124;"stop";60201039;"Praterbrücke";"Wien";90001;48.2036197174823;16.4338965886695;""
214461125;"stop";60201040;"Praterstern";"Wien";90001;48.2185135557888;16.3923315404733;""
214461126;"stop";60201041;"Rasumofskygasse";"Wien";90001;48.2055415533578;16.3943617330154;""
214461127;"stop";60201042;"Nestroyplatz/Praterstraße";"Wien";90001;48.2162869389869;16.3865913058077;""
214461128;"stop";60201043;"Predigtstuhl";"Wien";90001;48.2223021730837;16.2892947773847;""
214461129;"stop";60201044;"Preindlgasse";"Wien";90001;48.1875477130645;16.2773292178003;""
214461130;"stop";60201045;"Pretschgasse";"Wien";90001;48.1581391890298;16.4242127499067;""
214461131;"stop";60201047;"Preßgasse";"Wien";90001;48.1971651739692;16.3620403490927;""
214461132;"stop";60201048;"Prinzgasse";"Wien";90001;48.239876970631;16.4817318775488;""
214461133;"stop";60201049;"Otto-Wagner-Spital";"Wien";90001;48.2068945783506;16.2802667087793;""
214461134;"stop";60201050;"Puchgasse";"Wien";90001;48.2601490032784;16.4550698799162;""
214461135;"stop";60201052;"Baumgartner Höhe";"Wien";90001;48.2052242458625;16.272424416349;""
214461136;"stop";60201053;"Pumgasse";"Wien";90001;48.1360162728458;16.2721369554581;""
214461137;"stop";60201054;"Purkytgasse";"Wien";90001;48.1501925794867;16.3336805355731;""
214461138;"stop";60201055;"Pönningerweg";"Wien";90001;48.2132820498962;16.2885491756989;""
214461139;"stop";60201056;"Pötzleinsdorf";"Wien";90001;48.2409000364356;16.3111957040116;""
214461140;"stop";60201057;"Pötzleinsdorfer Friedhof";"Wien";90001;48.2455185349655;16.3074137966654;""
214461141;"stop";60201058;"Quellenplatz";"Wien";90001;48.1756221903886;16.3734938689653;""
214461142;"stop";60201059;"Quellenstraße/Favoritenstraße";"Wien";90001;48.1753346498165;16.3777698497177;""
214461143;"stop";60201060;"Knöllgasse";"Wien";90001;48.1774013118212;16.3581057281483;""
214461144;"stop";60201061;"Rabengasse";"Wien";90001;48.1940513742733;16.3976136343439;""
214461145;"stop";60201062;"Spittelau";"Wien";90001;48.2356109845114;16.3583662395807;""
214461146;"stop";60201063;"Radetzkyplatz";"Wien";90001;48.2109354800184;16.3901486343328;""
214461148;"stop";60201065;"Raimannstraße";"Wien";90001;48.2045177806048;16.2813087545089;""
214461149;"stop";60201066;"Rainergasse";"Wien";90001;48.1887215472152;16.3681129604134;""
214461150;"stop";60201067;"Rallenweg";"Wien";90001;48.2044339620463;16.458923652485;""
214461151;"stop";60201068;"Rampengasse";"Wien";90001;48.2409598642119;16.3606030446382;""
214461152;"stop";60201069;"Ramperstorffergasse";"Wien";90001;48.1849364345502;16.3603784658171;""
214461153;"stop";60201070;"Rappachgasse";"Wien";90001;48.1799231256475;16.4243924129635;""
214461154;"stop";60201071;"Löwengasse";"Wien";90001;48.2057391211826;16.3949097053387;""
214461155;"stop";60201072;"Rathaus";"Wien";90001;48.2100255566437;16.3553479002261;""
214461156;"stop";60201073;"Ravelinstraße";"Wien";90001;48.1734955501019;16.4271143082744;""
214461157;"stop";60201074;"Laxenburger Str./Sahulkastraße";"Wien";90001;48.1630827255008;16.3674931228673;""
214461158;"stop";60201075;"Ratmannsdorfgasse";"Wien";90001;48.1773833412063;16.2758919133457;""
214461159;"stop";60201076;"Ratzenhofergasse";"Wien";90001;48.2840954130139;16.4194696452065;""
214461160;"stop";60201077;"Rauscherstraße";"Wien";90001;48.230758217249;16.3752096511579;""
214461161;"stop";60201078;"Raxstraße/Rudolfshügelgasse";"Wien";90001;48.165677142497;16.3634866367002;""
214461162;"stop";60201079;"Rebhanngasse";"Wien";90001;48.2278439422565;16.3882621722362;""
214461163;"stop";60201080;"Redtenbachergasse";"Wien";90001;48.2133239519525;16.3146901504668;""
214461164;"stop";60201081;"Pflaumengasse";"Wien";90001;48.1567908691304;16.2911992057871;""
214461165;"stop";60201082;"Reichmanngasse";"Wien";90001;48.2068526710332;16.2848301504227;""
214461166;"stop";60201083;"Eßling, Wegmayersiedlung";"Wien";90001;48.2021169233053;16.5149605599084;""
214461167;"stop";60201084;"Linzer Straße/Reinlgasse";"Wien";90001;48.19327888313;16.3114292659854;""
214461168;"stop";60201085;"Reinprechtsdorfer Brücke";"Wien";90001;48.1892904877675;16.3514222624344;""
214461169;"stop";60201086;"Reinprechtsdf. Str./Arbeiterg.";"Wien";90001;48.1865295698346;16.3531560109328;""
214461170;"stop";60201087;"Hansl-Schmid-Weg";"Wien";90001;48.21441339338;16.2842731949465;""
214461171;"stop";60201088;"Westbahnstr./Neubaugasse";"Wien";90001;48.201967240196;16.3490596932372;""
214461173;"stop";60201090;"Renngasse";"Wien";90001;48.21321021772;16.3676009207014;""
214461174;"stop";60201091;"Rennweg";"Wien";90001;48.1947639720553;16.3862768954583;""
214461175;"stop";60201092;"Ruckergasse/Pohlgasse";"Wien";90001;48.1784256264589;16.3268353731081;""
214461176;"stop";60201094;"Resselgasse";"Wien";90001;48.1983627388486;16.3676638027713;""
214461177;"stop";60201095;"Reumannplatz";"Wien";90001;48.174154518495;16.3781920579012;""
214461178;"stop";60201096;"Reischergasse";"Wien";90001;48.1743761695966;16.2644653429317;""
214461179;"stop";60201097;"Richard-Neutra-Gasse";"Wien";90001;48.2665836480495;16.4309321482319;""
214461180;"stop";60201098;"Richard-Strauss-Straße";"Wien";90001;48.1377607991871;16.3384326234261;""
214461181;"stop";60201099;"Richthausenstraße";"Wien";90001;48.2237146031949;16.3226851564955;""
214461182;"stop";60201100;"Riedelgasse";"Wien";90001;48.1632684733421;16.2796019554691;""
214461183;"stop";60201101;"Riedstraße";"Wien";90001;48.210480520352;16.238989121474;""
214461184;"stop";60201102;"Riemergasse";"Wien";90001;48.207834490602;16.3773027257699;""
214461185;"stop";60201103;"Schippergasse";"Wien";90001;48.283635125919;16.4178077619309;""
214461186;"stop";60201104;"Rochusgasse";"Wien";90001;48.2025240591498;16.391325427355;""
214461187;"stop";60201105;"Rodaun";"Wien";90001;48.1328148228929;16.2627765101975;""
214461188;"stop";60201106;"Hochstraße";"Wien";90001;48.1323891469098;16.2584825631394;""
214461189;"stop";60201107;"Rodauner Straße";"Wien";90001;48.138983730764;16.2601983453321;""
214461190;"stop";60201108;"Rodlergasse";"Wien";90001;48.2407743978774;16.3341566426737;""
214461191;"stop";60201109;"Rohrbacherstraße";"Wien";90001;48.1876794712985;16.273214933799;""
214461192;"stop";60201110;"Sieveringer Str./Rohrerwiese";"Wien";90001;48.2639464984811;16.2946038207139;""
214461193;"stop";60201111;"Rohrhofergasse";"Wien";90001;48.1716084573992;16.4292073828864;""
214461194;"stop";60201112;"Rosasgasse";"Wien";90001;48.1816601699057;16.3245536522864;""
214461195;"stop";60201114;"Rosenhügelstraße";"Wien";90001;48.1688525782183;16.3024281468386;""
214461196;"stop";60201115;"Rosensteingasse";"Wien";90001;48.2191001215186;16.3271677497632;""
214461197;"stop";60201116;"Rosentalgasse";"Wien";90001;48.2019193415087;16.2609708964765;""
214461198;"stop";60201117;"Rossakgasse";"Wien";90001;48.1481008464439;16.3216071781545;""
214461199;"stop";60201118;"Rotenmühlgasse";"Wien";90001;48.1838283977308;16.3236912696137;""
214461200;"stop";60201119;"Rotenturmstraße";"Wien";90001;48.2103428343932;16.3744371000136;""
214461201;"stop";60201120;"Raffineriestr./Biberhaufenweg";"Wien";90001;48.193386673291;16.4669815405836;""
214461202;"stop";60201121;"Sandleitengasse";"Wien";90001;48.2178132593303;16.307548543958;""
214461203;"stop";60201122;"Rautenweg";"Wien";90001;48.2614228402004;16.4641518474386;""
